UNIQ_ID,FCODE_TYPE,SETL_CODE,SETL_NAME,NAME,LATIN_NAME,USG_GROUP,USG_CODE,E_ORD,N_ORD,LON,LAT,DATA_YEAR,PRDCT_VER,X,Y
54452998,252,472,אבו גוש,בית ספר - אבו גוש,,13,5310,210363.4894,635146.1028,35.10848207,31.80909221,2014,7/1/2015,210363.4894,635146.1028
54447401,252,472,אבו גוש,בית ספר - אבו גוש,,13,5330,210325.7432,635417.749,35.1080809,31.81154171,2014,7/1/2015,210325.7432,635417.749
65107421,252,472,אבו גוש,בית ספר - פיס השלום,,13,5310,210500.765,634521.9921,35.10993755,31.80346482,2014,7/1/2015,210500.765,634521.9921
54447516,252,175,אביחיל,בית ספר - ניסויי איזורי ממלכתי אביחיל,,13,5310,187964.1928,694761.327,34.86997654,32.34629513,0,,187964.1928,694761.327
60590867,252,175,אביחיל,גן ילדים,Kindergarten,13,5305,187946.6727,694775.6079,34.86978996,32.34642342,0,,187946.6727,694775.6079
54446463,252,182,אבן יהודה,פנימיה - כפר הנוער הדסים ויצו קנדה,,13,5338,189363.2894,688073.0455,34.88505038,32.28602194,0,,189363.2894,688073.0455
54446467,252,182,אבן יהודה,"AIS בי""ס אמריקאי בינלאומי",,13,5300,188612.075,685668.9927,34.87715366,32.26432279,0,,188612.075,685668.9927
64763936,252,182,אבן יהודה,"בית חינוך בית אב""י",,13,5300,188993.2118,685747.7495,34.88119617,32.26504341,0,,188993.2118,685747.7495
54447332,252,182,אבן יהודה,"בית ספר - מ""מ ע""ש יהודה בכר",,13,5310,189343.594,685608.7621,34.88491922,32.26379954,2014,7/1/2015,189343.594,685608.7621
65108042,252,400,אבן שמואל,בית ספר - אבן שמואל,,13,5310,177515.9353,609048.7393,34.76270589,31.5730044,2014,7/1/2015,177515.9353,609048.7393
60590848,252,400,אבן שמואל,"בית ספר - ממ""ד",,13,5310,177505.0335,609162.2438,34.76258622,31.57402763,2014,7/1/2015,177505.0335,609162.2438
54450859,252,2710,אום אל-פחם,בית ספר - אבן סינא,,13,5310,214085.4995,713893.8307,35.14734789,32.519253,0,,214085.4995,713893.8307
54450517,252,2710,אום אל-פחם,בית ספר - אלזהרא,,13,5310,214423.3299,713237.9007,35.15094696,32.51333982,0,,214423.3299,713237.9007
54452871,252,2710,אום אל-פחם,בית ספר - ממלכתי אבן חלדון,,13,5310,215078.4102,713806.8011,35.15791593,32.51847258,2014,7/1/2015,215078.4102,713806.8011
54449109,252,2710,אום אל-פחם,גן ילדים - גני פיס,,13,5305,214457.7078,714285.3114,35.15130726,32.52278486,0,,214457.7078,714285.3114
54447790,252,2710,אום אל-פחם,בית ספר - תיכון מקיף,,13,5330,214465.9287,715139.7676,35.15139022,32.53048984,0,,214465.9287,715139.7676
54450080,252,2710,אום אל-פחם,בית ספר - ממלכתי אל מותנבי,,13,5310,215480.2497,713759.6567,35.16219291,32.51804897,0,,215480.2497,713759.6567
54447659,252,2710,אום אל-פחם,בית ספר - יסודי אלאחיה,,13,5310,213257.9026,713451.9654,35.13854262,32.51526423,0,,213257.9026,713451.9654
54449810,252,2710,אום אל-פחם,גן ילדים - אשכול גנים פיס,,13,5305,214915.555,713255.8469,35.15618533,32.51350377,0,,214915.555,713255.8469
54453030,252,2710,אום אל-פחם,בית ספר - בן אל ח'טאב,,13,5310,214495.4365,713176.2145,35.15171467,32.51278389,0,,214495.4365,713176.2145
54452447,252,2710,אום אל-פחם,גן ילדים,Kindergarten,13,5305,215597.0702,713302.8188,35.1634381,32.51392991,0,,215597.0702,713302.8188
54448721,252,2710,אום אל-פחם,בית ספר - ממלכתי אלחינסא,,13,5310,214941.5228,713183.734,35.15646203,32.5128536,0,,214941.5228,713183.734
54448498,252,2710,אום אל-פחם,בית ספר - אלח'יאם,,13,5310,214087.073,713667.0455,35.14736594,32.517208,0,,214087.073,713667.0455
54453148,252,2710,אום אל-פחם,בית ספר - עראק אלג'ראב,,13,5310,213719.5073,714615.2241,35.14344821,32.52575623,2014,7/1/2015,213719.5073,714615.2241
54450888,252,2710,אום אל-פחם,גן ילדים - אשכול גנים אלח'יאם,,13,5305,214097.6949,713729.0638,35.14747863,32.51776729,0,,214097.6949,713729.0638
54449893,252,2710,אום אל-פחם,בית ספר - אל ואטן,,13,5310,214496.2439,715038.0796,35.15171345,32.52957302,0,,214496.2439,715038.0796
54448331,252,2710,אום אל-פחם,בית ספר אל ראזי למדעים ואומנויות,School,13,5320,213534.5526,713998.5648,35.14148346,32.52019462,2014,7/1/2015,213534.5526,713998.5648
54449384,252,2710,אום אל-פחם,בית ספר - עתיד,,13,5330,214644.6767,715373.1743,35.1532917,32.53259534,2014,7/1/2015,214644.6767,715373.1743
54451025,252,2710,אום אל-פחם,גן ילדים,Kindergarten,13,5305,215204.7401,713661.1998,35.15926112,32.51716013,0,,215204.7401,713661.1998
54447416,252,2710,אום אל-פחם,בית ספר - ואדי אלנסור,,13,5320,214836.0449,712839.1146,35.15534119,32.50974561,2014,7/1/2015,214836.0449,712839.1146
61240974,252,1358,אום בטין,גני ילדים,Kindergartens Kindergarten,13,5305,188686.7965,576398.8719,34.88139029,31.27889489,0,,188686.7965,576398.8719
61240938,252,1358,אום בטין,בית ספר אום בטין,,13,5310,189083.4477,576182.6245,34.88556215,31.27695496,0,,189083.4477,576182.6245
54447045,252,31,אופקים,בית ספר - הגבעה למדעים ואמנויות,,13,5310,163599.318,580476.6141,34.61772058,31.31473798,0,,163599.318,580476.6141
54451730,252,31,אופקים,בית ספר - עתיד אופקים,,13,5330,163224.8332,581010.9601,34.61375664,31.31953899,0,,163224.8332,581010.9601
54446477,252,31,אופקים,בית ספר - איילת השחר,,13,5337,163832.716,579321.9993,34.62023665,31.30433612,0,,163832.716,579321.9993
54452724,252,31,אופקים,בית ספר - הדסים,,13,5310,164436.8806,579516.5221,34.62657184,31.30611917,0,,164436.8806,579516.5221
54452242,252,31,אופקים,ישיבת - בני עקיבא,,13,5340,163665.7111,580107.9621,34.61843861,31.31141643,0,,163665.7111,580107.9621
54450674,252,31,אופקים,"בית ספר - חב""ד בנות אופקים",,13,5312,163454.3713,580493.3944,34.61619702,31.31488234,0,,163454.3713,580493.3944
54450933,252,31,אופקים,בית ספר - אביר יעקב,,13,5312,163510.4785,579536.5048,34.61683999,31.30625522,0,,163510.4785,579536.5048
54448042,252,31,אופקים,בית ספר - בית יעקב לבנות,,13,5312,164251.0326,579710.6192,34.62460901,31.30786086,0,,164251.0326,579710.6192
54452244,252,31,אופקים,בית ספר - נראה אור,,13,5312,164220.5321,579658.2402,34.62429153,31.30738702,0,,164220.5321,579658.2402
54452860,252,31,אופקים,בית ספר - מעיינות חיה,,13,5321,163493.2559,580544.5881,34.61660262,31.31534591,2014,7/1/2015,163493.2559,580544.5881
54448277,252,31,אופקים,ישיבת - אופקים תורת חיים,,13,5340,164375.4552,579844.6806,34.62590855,31.3090758,2014,7/1/2015,164375.4552,579844.6806
54448120,252,31,אופקים,בית ספר - דרכי חיים,,13,5312,164479.7513,579800.0087,34.62700655,31.30867786,2014,7/1/2015,164479.7513,579800.0087
54447121,252,31,אופקים,בית ספר - אשלים לתקשורת,,13,5310,163482.2598,581024.0537,34.61646024,31.31966949,2014,7/1/2015,163482.2598,581024.0537
54450997,252,31,אופקים,בית ספר - מעלות רחל בית יעקב,,13,5312,163077.4205,580712.3646,34.61222488,31.31683894,2014,7/1/2015,163077.4205,580712.3646
54447304,252,31,אופקים,בית ספר - דרכי נועם,,13,5310,163329.2014,580267.8821,34.61489481,31.31284251,2014,7/1/2015,163329.2014,580267.8821
54447136,252,31,אופקים,בית ספר - מקיף עמל,,13,5330,163871.7799,579454.0203,34.62063962,31.30552864,2014,7/1/2015,163871.7799,579454.0203
54453096,252,31,אופקים,בית ספר - נווה יוכבד בית יעקב,,13,5332,163074.9537,580774.0162,34.61219549,31.31739484,2014,7/1/2015,163074.9537,580774.0162
54448640,252,31,אופקים,בית ספר - סעדיה גאון,,13,5310,164573.7387,579882.4501,34.62798927,31.3094258,2014,7/1/2015,164573.7387,579882.4501
54450734,252,31,אופקים,"בית ספר - ש""ס מעין התורה",,13,5312,164090.3581,579743.7385,34.62291945,31.30815192,0,,164090.3581,579743.7385
54446792,252,31,אופקים,בית ספר - בן גוריון,,13,5310,163518.0656,579414.5128,34.61692651,31.30515539,0,,163518.0656,579414.5128
54449285,252,31,אופקים,ישיבה - לצעירים,,13,5340,164552.5414,579824.9958,34.62776977,31.30890664,0,,164552.5414,579824.9958
54448693,252,31,אופקים,גן ילדים - רשת מרגלית מעון יום,,13,5305,164200.6629,579744.554,34.62407805,31.30816451,2014,7/1/2015,164200.6629,579744.554
60590686,252,1294,אור הגנוז,בית ספר - תלמוד תורה,,13,5310,241937.4554,767774.2221,35.4450808,33.00487487,2014,7/1/2015,241937.4554,767774.2221
54452848,252,2400,אור יהודה,בית ספר - הדרים,,13,5310,186340.2077,659349.1827,34.85395161,32.02691288,0,,186340.2077,659349.1827
54450472,252,2400,אור יהודה,בית ספר - מעלה סביונים,,13,5310,187213.2439,659718.0856,34.86318086,32.03026482,0,,187213.2439,659718.0856
54451714,252,2400,אור יהודה,בית ספר - תפארת יעקב,,13,5310,186282.5709,659380.1567,34.85334042,32.02719051,0,,186282.5709,659380.1567
54451438,252,2400,אור יהודה,בית ספר - אלונים,,13,5310,187304.0357,659620.172,34.86414524,32.02938443,0,,187304.0357,659620.172
54450281,252,2400,אור יהודה,גן ילדים - מוסדות שערי ציון,Mosdot Sha'are Tsiyyon Kindergarten,13,5305,187339.05,659935.1205,34.86450541,32.0322256,0,,187339.05,659935.1205
54450899,252,2400,אור יהודה,בית ספר - אהוד מנור,,13,5310,188157.0635,659431.4894,34.87318141,32.02770682,0,,188157.0635,659431.4894
54450319,252,2400,אור יהודה,בית ספר - יסודי ממלכתי דתי סעדיה גאון,,13,5312,185469.665,659669.7239,34.84472513,32.02977768,0,,185469.665,659669.7239
54447028,252,2400,אור יהודה,בית ספר - מקיף פרקאוף,,13,5330,187177.3777,659929.5359,34.8627941,32.03217064,0,,187177.3777,659929.5359
54449131,252,2400,אור יהודה,בית ספר - נס דוד,,13,5310,186250.5047,659391.4866,34.85300059,32.02729174,0,,186250.5047,659391.4866
54447212,252,2400,אור יהודה,ישיבה - הגדולה ברכת יצחק,,13,5340,186510.485,658839.8913,34.85577149,32.0223251,2014,7/1/2015,186510.485,658839.8913
54449571,252,2400,אור יהודה,גן ילדים - גן רותי,,13,5305,187204.7723,659343.1631,34.86310372,32.02688356,2014,7/1/2015,187204.7723,659343.1631
54448703,252,2400,אור יהודה,"גן ילדים - ויצ""ו",WIZO Kindergarten,13,5305,187408.2848,659791.78,34.8652431,32.03093493,0,,187408.2848,659791.78
54451953,252,2400,אור יהודה,בית ספר - מכתב מאליהו,,13,5310,185409.2993,659730.3756,34.84408396,32.03032281,0,,185409.2993,659730.3756
54448024,252,2400,אור יהודה,בית ספר - יסודי שיזף,,13,5310,186630.2178,660087.2181,34.8569964,32.03357686,2014,7/1/2015,186630.2178,660087.2181
54450122,252,2400,אור יהודה,גן ילדים - דתי גן תדהר,,13,5305,186522.045,659138.8172,34.85588364,32.02502112,0,,186522.045,659138.8172
54450476,252,2400,אור יהודה,בית ספר - ממלכתי דתי אור חנה,,13,5332,187366.9097,659215.2641,34.8648243,32.02573479,0,,187366.9097,659215.2641
54449876,252,2400,אור יהודה,בית ספר - ממלכתי על שם הולנדר,,13,5310,185595.9899,659921.7342,34.84605353,32.03205406,0,,185595.9899,659921.7342
54452120,252,2400,אור יהודה,בית ספר - מכתב מאליהו,,13,5310,185466.7526,659820.6058,34.84468897,32.03113822,0,,185466.7526,659820.6058
54448036,252,2400,אור יהודה,בית ספר - אור אבנר,,13,5312,187184.7139,659401.6871,34.86288943,32.02741075,2014,7/1/2015,187184.7139,659401.6871
64763973,252,1020,אור עקיבא,בית ספר - דרור,,13,5310,192257.8318,713750.1777,34.91503977,32.51763756,0,,192257.8318,713750.1777
54446446,252,1020,אור עקיבא,קרית חינוך עתידים,,13,5300,192488.8274,712011.6837,34.91754801,32.50196672,2014,7/1/2015,192488.8274,712011.6837
54446562,252,1020,אור עקיבא,בית ספר - רבי עקיבא,,13,5310,192274.7402,712683.6,34.91525053,32.50802036,0,,192274.7402,712683.6
54449230,252,1020,אור עקיבא,בית ספר - רוטשילד,,13,5310,192250.77,713838.2912,34.91496207,32.51843193,0,,192250.77,713838.2912
54451850,252,1020,אור עקיבא,בית ספר - ברנקו וייס,,13,5337,192319.8193,713062.4928,34.91571932,32.51143804,0,,192319.8193,713062.4928
54452058,252,1020,אור עקיבא,בית ספר - עציון,,13,5312,192406.823,713078.359,34.91664476,32.51158323,0,,192406.823,713078.359
64763944,252,1020,אור עקיבא,גן ילדים - בן גוריון,,13,5305,192733.5441,713330.0633,34.9201146,32.51386082,0,,192733.5441,713330.0633
64764006,252,1020,אור עקיבא,גן ילדים - ארז,Erez Kindergarten,13,5305,192592.4359,713104.4477,34.91861932,32.51182298,0,,192592.4359,713104.4477
54448489,252,1020,אור עקיבא,בית ספר - נחמיה תמרי,,13,5310,193288.6333,711741.5345,34.92606619,32.49954983,0,,193288.6333,711741.5345
54447603,252,1020,אור עקיבא,בית ספר - חנה סנש,,13,5310,192688.7216,711844.276,34.91967983,32.50046199,2014,7/1/2015,192688.7216,711844.276
54452526,252,1020,אור עקיבא,בית ספר - אופק,,13,5330,192939.856,712499.2532,34.92233364,32.50637413,2014,7/1/2015,192939.856,712499.2532
64843990,252,1020,אור עקיבא,ישיבה - שערי תורה,,13,5340,192170.7928,712798.1015,34.91414104,32.5090503,2014,7/1/2015,192170.7928,712798.1015
54449556,252,1020,אור עקיבא,בית ספר - אור שלום,,13,5310,192476.4497,713275.7391,34.91738007,32.51336475,0,,192476.4497,713275.7391
64763970,252,1020,אור עקיבא,גן ילדים צליל,Kindergarten,13,5305,193081.2571,712256.6713,34.92384515,32.50419006,0,,193081.2571,712256.6713
64764026,252,1020,אור עקיבא,גן ילדים - חברים,,13,5305,192736.6735,711639.0674,34.92019589,32.49861272,2014,7/1/2015,192736.6735,711639.0674
65109617,252,882,אורנים,מכללת אורנים,,13,5370,210491.5455,735308.8616,35.10889213,32.71233386,2014,7/1/2015,210491.5455,735308.8616
54449174,252,565,אזור,בית ספר - מדעי תורני מימון,,13,5312,182322.0734,658790.3006,34.81143903,32.02174824,0,,182322.0734,658790.3006
54450310,252,565,אזור,גן ילדים - דתי,,13,5305,182160.3534,659173.8605,34.8097124,32.02520182,0,,182160.3534,659173.8605
54447375,252,565,אזור,בית ספר - רבין,,13,5320,181157.5416,659775.92,34.79907341,32.03059761,0,,181157.5416,659775.92
54447148,252,565,אזור,בית ספר - השבעה,,13,5310,182022.3434,658584.7053,34.80827439,32.01988434,2014,7/1/2015,182022.3434,658584.7053
54448090,252,565,אזור,בית ספר - יוספטל,,13,5310,181988.2192,659311.457,34.80788496,32.02643696,0,,181988.2192,659311.457
65108522,252,1330,אחוזת ברק,גן ילדים - גן האושר,Gan Ha'Osher Kindergarten,13,5305,231811.9146,727888.2957,35.33619592,32.64538896,2014,7/1/2015,231811.9146,727888.2957
65108821,252,77,איילת השחר,בית ספר יסודי - מבוא הגליל,,13,5310,253897.3212,769838.8323,35.57313897,33.02317814,2014,7/1/2015,253897.3212,769838.8323
54447134,252,2600,אילת,"בית ספר - מ""מ אלמוג",,13,5310,194738.4423,385560.995,34.9494565,29.55763523,2014,7/1/2015,194738.4423,385560.995
54448314,252,2600,אילת,בית ספר - תהילת ישראל,,13,5337,194157.4589,385982.9139,34.94345184,29.56142989,0,,194157.4589,385982.9139
54452353,252,2600,אילת,המרכז הלאומי לחקלאות ימית,,13,5420,197164.4912,384859.0258,34.97450408,29.55134815,0,,197164.4912,384859.0258
54450020,252,2600,אילת,בית ספר - איילת השחר,,13,5312,194995.7861,386110.3829,34.95209959,29.56259656,0,,194995.7861,386110.3829
54450838,252,2600,אילת,"בית ספר - מ""מ הרי אילת",,13,5310,192972.5842,384310.8414,34.93126584,29.54632083,0,,192972.5842,384310.8414
54448596,252,2600,אילת,אוניברסיטת - בן גוריון בנגב קמפוס אילת,,13,5380,194899.265,386579.1697,34.95109303,29.56682379,2014,7/1/2015,194899.265,386579.1697
54452199,252,2600,אילת,מכללה - למנהל אילת,,13,5370,194769.2848,385260.4569,34.94978155,29.55492455,0,,194769.2848,385260.4569
54447025,252,2600,אילת,בית ספר - היובל,,13,5310,193181.9603,384688.0524,34.93341696,29.54972824,0,,193181.9603,384688.0524
54448748,252,2600,אילת,גן ילדים - גן ערבה,Gan Arava Kindergarten,13,5305,195229.5699,386151.779,34.95451108,29.56297457,2014,7/1/2015,195229.5699,386151.779
54450529,252,2600,אילת,גן ילדים - גן נאות מרגלית,,13,5305,194498.6921,385124.5146,34.94699262,29.55369278,0,,194498.6921,385124.5146
54446704,252,2600,אילת,האוניברסיטה - למחקר ימי,,13,5380,191591.7384,379434.268,34.91714355,29.50229701,0,,191591.7384,379434.268
60590826,252,2600,אילת,בית ספר שדה - אילת,,13,5411,191962.1976,380263.6765,34.92094319,29.5097877,0,,191962.1976,380263.6765
54450060,252,2600,אילת,גן ילדים - גן שחף,Gan Shahaf Kindergarten,13,5305,194154.2869,385411.975,34.94343235,29.55627914,0,,194154.2869,385411.975
54450963,252,2600,אילת,"בי""ס הבינלאומי למלונאות ותיירות",International School for Hotel & Tourism,13,5370,194890.7834,386677.8317,34.95100328,29.56771369,2014,7/1/2015,194890.7834,386677.8317
54451314,252,2600,אילת,"מקיף מ""מ מנחם בגין",Menahem Begin Makif,13,5330,193750.7292,386181.47,34.93925016,29.56321283,2014,7/1/2015,193750.7292,386181.47
54447779,252,2600,אילת,"מקיף מ""מ ע""ש יגאל אלון",Yig'al Allon Makif Ort,13,5330,194789.9611,386327.609,34.94997076,29.56455219,2014,7/1/2015,194789.9611,386327.609
54450008,252,2600,אילת,"בי""ס לפגועי נפש בית אסי",Bet Asia Mentally Injured People School,13,5300,195214.2387,385957.1646,34.95435721,29.56121858,0,,195214.2387,385957.1646
54451905,252,2600,אילת,בית ספר - ימין הרצוג,,13,5312,194084.2839,386371.3119,34.94268771,29.5649323,2014,7/1/2015,194084.2839,386371.3119
54447830,252,2600,אילת,"בית ספר - חב""ד אור אבנר",,13,5312,194757.7588,386201.9994,34.9496413,29.56341838,0,,194757.7588,386201.9994
54448074,252,2600,אילת,"בית ספר - מ""מ אופיר",,13,5310,194092.2215,385390.9879,34.94279242,29.55608855,0,,194092.2215,385390.9879
54449914,252,2600,אילת,"בי""ס מ""מ חינוך מיוחד אורים",Urim Special Education State School,13,5300,193989.85,386395.8575,34.94171265,29.56515181,2014,7/1/2015,193989.85,386395.8575
54450686,252,2600,אילת,"בית ספר - מ""מ עציון גבר ללימודי הסביבה",,13,5310,193802.0231,385601.7763,34.9397931,29.55798423,0,,193802.0231,385601.7763
54452537,252,2600,אילת,"בית ספר - מ""מ מצפה ים",,13,5310,193232.75,385391.1817,34.9339241,29.55607253,0,,193232.75,385391.1817
54452821,252,2600,אילת,"בית ספר - מ""מ צאלים",,13,5310,193322.0361,385877.8224,34.93483372,29.56046459,2014,7/1/2015,193322.0361,385877.8224
54448597,252,2600,אילת,"מקיף מ""מ יצחק רבין",Yits'hak Rabin Makif,13,5330,193530.6979,385091.9419,34.93700554,29.55337919,0,,193530.6979,385091.9419
54452916,252,2600,אילת,גן ילדים - גן פז,Gan Paz Kindergarten,13,5305,194211.5523,386079.8471,34.94400778,29.56230546,0,,194211.5523,386079.8471
54451597,252,2600,אילת,בית ספר - ישיבתית ימין הרצוג,,13,5321,194412.3517,386217.7335,34.94607665,29.56355344,0,,194412.3517,386217.7335
54449882,252,2600,אילת,"בית ספר - מ""מ יעלים",,13,5310,195075.3818,386232.1248,34.95291821,29.5636964,2014,7/1/2015,195075.3818,386232.1248
60546468,252,2600,אילת,בית ספר גלים,School,13,5300,193478.3621,384475.2608,34.93648021,29.54781476,2014,7/1/2015,193478.3621,384475.2608
54446684,252,2600,אילת,"מקיף מ""מ עירוני גולדווטר",Goldwater,13,5330,194738.7439,385187.8337,34.94946807,29.55426878,0,,194738.7439,385187.8337
61078795,252,1359,אל סייד,בית ספר - אל סייד א,,13,5310,192342.41,576977.874,34.91976284,31.28420772,0,,192342.41,576977.874
61078804,252,1359,אל סייד,בית ספר - אל סייד ג,,13,5310,191820.8184,576718.0939,34.91429238,31.28185251,2014,7/1/2015,191820.8184,576718.0939
61078810,252,1359,אל סייד,בית ספר - אל סייד ב,,13,5310,190736.1648,577303.5957,34.90288508,31.28710691,0,,190736.1648,577303.5957
65108921,252,4002,אלי-עד,בית ספר דמוקרטי כנף,School,13,5310,269564.4514,746050.7716,35.73953018,32.8080874,2014,7/1/2015,269564.4514,746050.7716
54447612,252,41,אליכין,"בית ספר - ממ""ד רמב""ם",,13,5312,193012.5558,701541.1838,34.9234143,32.40756309,0,,193012.5558,701541.1838
54448472,252,1309,אלעד,בית ספר - ממלכתי דתי בית יעקב,,13,5312,196319.6153,662431.5146,34.95951596,32.05495728,0,,196319.6153,662431.5146
60590899,252,1309,אלעד,בית ספר - חטיבה צעירה,,13,5310,196211.8449,661952.4191,34.95838636,32.0506346,0,,196211.8449,661952.4191
54449791,252,1309,אלעד,בית ספר - לבנות תפארת חיה,,13,5312,195381.2363,661604.0105,34.94960026,32.04747529,0,,195381.2363,661604.0105
54452583,252,1309,אלעד,בית ספר - ממלכתי אור האמת,,13,5312,194927.7024,662308.2849,34.94478029,32.05381665,2014,7/1/2015,194927.7024,662308.2849
54450140,252,1309,אלעד,בית ספר - קהילת הליכות עולם- ברכת אברהם,,13,5312,194942.9461,662263.3701,34.94494285,32.05341194,2014,7/1/2015,194942.9461,662263.3701
54451914,252,1309,אלעד,גן ילדים - דעת יוסף,,13,5305,196260.7221,662493.1109,34.95889087,32.05551154,2014,7/1/2015,196260.7221,662493.1109
54450996,252,1309,אלעד,ישיבה - קרית הישיבה הקדושה,Kiryat HaYeshiva HaKdosha Yeshiva,13,5340,195683.702,661975.8255,34.9527936,32.0508347,0,,195683.702,661975.8255
65107207,252,1309,אלעד,בית ספר - בית יעקב החדש,,13,5330,196916.0262,662105.3722,34.96583893,32.05202818,2014,7/1/2015,196916.0262,662105.3722
54452950,252,1309,אלעד,גן ילדים - גן בית מרגלית,,13,5305,196944.2127,661826.9645,34.9661439,32.04951808,2014,7/1/2015,196944.2127,661826.9645
54448088,252,1309,אלעד,בית ספר - פרו תואר,,13,5312,196067.8124,661549.5724,34.95687107,32.04699878,2014,7/1/2015,196067.8124,661549.5724
54450016,252,1309,אלעד,בית ספר - ממלכתי תורת חיים,,13,5312,195003.9123,662333.367,34.94558662,32.05404449,2014,7/1/2015,195003.9123,662333.367
54448145,252,1309,אלעד,בית ספר - דרך המלך,,13,5312,195209.724,661765.5302,34.94778022,32.0489282,2014,7/1/2015,195209.724,661765.5302
65107045,252,1309,אלעד,גן ילדים - גני פיס,,13,5305,196719.1974,661889.8951,34.96375989,32.05008108,2014,7/1/2015,196719.1974,661889.8951
65107046,252,1309,אלעד,בית ספר - בית מרגלית,,13,5310,196273.8033,662484.5342,34.95902959,32.05543446,2014,7/1/2015,196273.8033,662484.5342
54449469,252,1309,אלעד,בית ספר - לבנות בית יעקב,,13,5312,195480.3341,662175.8727,34.95063527,32.05263442,2014,7/1/2015,195480.3341,662175.8727
54451118,252,1309,אלעד,"גן ילדים - גן אגו""ו",,13,5305,196505.7816,662519.4188,34.96148516,32.05575379,2014,7/1/2015,196505.7816,662519.4188
65108365,252,1309,אלעד,גן ילדים - גני פיס,,13,5305,196799.3751,661951.716,34.96460738,32.05064019,2014,7/1/2015,196799.3751,661951.716
65108366,252,1309,אלעד,בית ספר - בית מרגלים,,13,5330,196303.3425,662483.9198,34.95934239,32.05542953,2014,7/1/2015,196303.3425,662483.9198
54451743,252,1309,אלעד,ישיבת - נר ישראל,,13,5340,196884.279,661906.7454,34.96550743,32.05023634,2014,7/1/2015,196884.279,661906.7454
65108183,252,1309,אלעד,גן ילדים - גן אפרסמון,,13,5305,196931.1591,662019.0722,34.96600119,32.05125024,2014,7/1/2015,196931.1591,662019.0722
65108184,252,1309,אלעד,בית ספר - אור האמת,,13,5312,196788.6032,661996.4942,34.96449227,32.05104378,2014,7/1/2015,196788.6032,661996.4942
54449632,252,1309,אלעד,גן ילדים - גן בית מרגלית,,13,5305,196237.1906,662650.1002,34.9586379,32.05692678,2014,7/1/2015,196237.1906,662650.1002
54450812,252,1309,אלעד,"בית ספר - ממלכתי דתי ממ""ד",,13,5310,195216.6941,661960.0463,34.94784912,32.05068249,2014,7/1/2015,195216.6941,661960.0463
54451239,252,1309,אלעד,בית ספר - אומרי דוד,,13,5312,196835.8124,661700.8904,34.96499909,32.04837898,2014,7/1/2015,196835.8124,661700.8904
54450361,252,1309,אלעד,בית ספר - קהילת יעקב החדשה,,13,5312,196582.7408,662064.8108,34.96231088,32.05165571,2014,7/1/2015,196582.7408,662064.8108
65107558,252,1309,אלעד,גן ילדים - אפרסק,,13,5305,196960.3186,662019.1833,34.96630994,32.05125182,2014,7/1/2015,196960.3186,662019.1833
54452888,252,1309,אלעד,גן ילדים - גן גאולה,Gan Ge'ula Kindergarten,13,5305,196290.7163,662052.3163,34.95921908,32.05153709,2014,7/1/2015,196290.7163,662052.3163
54449956,252,1309,אלעד,"בית ספר - תשב""ר זכרון יעקב",,13,5312,196619.8659,661946.176,34.9627068,32.05058662,2014,7/1/2015,196619.8659,661946.176
54449695,252,1309,אלעד,בית ספר - אוהל אשר,,13,5312,196592.5926,662546.7576,34.96240376,32.05600209,2014,7/1/2015,196592.5926,662546.7576
54452952,252,1309,אלעד,בית ספר - ממלכתי דעת זקנים,,13,5312,196311.9417,662353.8155,34.95943658,32.05425643,2014,7/1/2015,196311.9417,662353.8155
54450727,252,1309,אלעד,בית ספר - תלמוד תורה קהילות יעקב,,13,5312,195542.7671,661989.8722,34.95130097,32.0509584,2014,7/1/2015,195542.7671,661989.8722
54451121,252,1309,אלעד,גן ילדים - גן שירת שרה,,13,5305,196905.5,661772.6652,34.96573527,32.04902763,2014,7/1/2015,196905.5,661772.6652
54450441,252,1309,אלעד,בית ספר - פיס,,13,5312,196489.7728,661916.0821,34.96133004,32.0503126,2014,7/1/2015,196489.7728,661916.0821
54453136,252,1309,אלעד,בית ספר - צמח צדיק ויזניץ,,13,5312,196587.4277,662039.3235,34.96236112,32.05142596,2014,7/1/2015,196587.4277,662039.3235
54451647,252,1309,אלעד,בית ספר - יסודי דתי נועם,,13,5312,196028.5793,662169.6489,34.95644059,32.05258979,2014,7/1/2015,196028.5793,662169.6489
54450393,252,1309,אלעד,ישיבה - אמרי מרדכי,,13,5340,196513.3126,662473.7251,34.961566,32.05534188,2014,7/1/2015,196513.3126,662473.7251
54450843,252,1309,אלעד,גן ילדים - בית מרגלית,,13,5305,195294.4412,661626.1311,34.94868071,32.04767292,2014,7/1/2015,195294.4412,661626.1311
54450853,252,1309,אלעד,בית ספר - דרכי אבות,,13,5312,196623.9951,661907.7853,34.96275143,32.05024049,2014,7/1/2015,196623.9951,661907.7853
54451324,252,1309,אלעד,ישיבה - צמח צדיק וייז'ניץ,Tsemah Tsaddik Viznitz Yeshiva,13,5340,196529.6837,661818.2895,34.96175496,32.04943152,2014,7/1/2015,196529.6837,661818.2895
54452159,252,1309,אלעד,גן ילדים - גן מורג,,13,5305,196722.296,661500.6009,34.96380189,32.0465705,2014,7/1/2015,196722.296,661500.6009
54448925,252,1309,אלעד,כולל - עטרת משה,Ateret Moshe Kolel,13,5340,196299.9072,662304.2337,34.95931034,32.05380906,2014,7/1/2015,196299.9072,662304.2337
54441392,252,1309,אלעד,ישיבה - לצעירים אלעד,,13,5340,196921.5342,661793.5251,34.96590455,32.04921607,2014,7/1/2015,196921.5342,661793.5251
54451272,252,1309,אלעד,בית ספר - כתב סופר ערלוי,,13,5312,196611.5244,661995.093,34.96261731,32.05102758,2014,7/1/2015,196611.5244,661995.093
54452274,252,1309,אלעד,בית ספר - אמרי בינה,,13,5312,196889.6745,661737.774,34.96556852,32.04871267,2014,7/1/2015,196889.6745,661737.774
54447550,252,1309,אלעד,בית ספר - אור מאיר,,13,5312,195935.2432,662184.871,34.95545191,32.05272512,2014,7/1/2015,195935.2432,662184.871
65109308,252,529,אעבלין,בית ספר - מר אליאס,,13,5330,217976.5047,747113.3548,35.18870755,32.81881063,2014,7/1/2015,217976.5047,747113.3548
65109309,252,529,אעבלין,בית ספר אלאמאל לחינוך מיוחד,,13,5300,218802.4076,747850.0383,35.19752656,32.82545406,2014,7/1/2015,218802.4076,747850.0383
65109199,252,529,אעבלין,בית ספר - רשמי ד,,13,5310,217235.9921,747857.6784,35.18079808,32.8255209,2014,7/1/2015,217235.9921,747857.6784
60546482,252,176,אפיקים,בית ספר אזורי אפיקי ירדן,,13,5300,254426.8899,731966.7507,35.57737598,32.68168009,2014,7/1/2015,254426.8899,731966.7507
54452846,252,70,אשדוד,"בית ספר - מ""מ מרכז נוער",,13,5320,168490.5859,635136.991,34.66627903,31.80790835,2014,7/1/2015,168490.5859,635136.991
54447577,252,70,אשדוד,החווה,HaHavva,13,5300,168580.6512,635040.3403,34.66723519,31.80704077,2014,7/1/2015,168580.6512,635040.3403
54449676,252,70,אשדוד,פנימיה - דתית לבנות,,13,5338,168020.5676,633839.9677,34.66138395,31.79619072,2014,7/1/2015,168020.5676,633839.9677
54450807,252,70,אשדוד,בית ספר - מקיף דתי י,,13,5321,165495.0782,632395.6292,34.63479751,31.78304918,2014,7/1/2015,165495.0782,632395.6292
54451900,252,70,אשדוד,"בית ספר - מ""מ אמירים",,13,5310,166863.115,632006.218,34.64926138,31.77960126,2014,7/1/2015,166863.115,632006.218
54450070,252,70,אשדוד,בית ספר - אורות התורה,,13,5310,168185.626,632938.3851,34.66317417,31.78806767,2014,7/1/2015,168185.626,632938.3851
54450716,252,70,אשדוד,"בית ספר על יסודי מ""מ מקיף ב",,13,5320,167865.7049,634900.9733,34.65969263,31.80575187,2014,7/1/2015,167865.7049,634900.9733
54447625,252,70,אשדוד,"בית ספר מ""מ למדעים מקיף ד",,13,5330,166494.7748,633994.1422,34.6452649,31.79751132,2014,7/1/2015,166494.7748,633994.1422
54449432,252,70,אשדוד,בית ספר פיס,School,13,5312,167768.738,634178.7398,34.65870695,31.79923439,0,,167768.738,634178.7398
54449081,252,70,אשדוד,"בית ספר - ממ""ד מוריה",,13,5312,167445.9856,635098.1882,34.65524988,31.8075113,0,,167445.9856,635098.1882
54450970,252,70,אשדוד,בית ספר - יוסף חיים,,13,5312,167301.359,634768.5118,34.65374023,31.80453169,0,,167301.359,634768.5118
54447447,252,70,אשדוד,המכללה - האקדמית להנדסה בנגב,,13,5370,167769.079,635085.1804,34.65866249,31.80740868,2014,7/1/2015,167769.079,635085.1804
54451625,252,70,אשדוד,"בית ספר - ממ""ד אשכול",,13,5312,168065.6165,632409.1004,34.66193499,31.78328918,2014,7/1/2015,168065.6165,632409.1004
54452999,252,70,אשדוד,בית ספר - חסידי בית יעקב ורשביאק,,13,5312,166927.6796,632746.4244,34.64990315,31.78627941,2014,7/1/2015,166927.6796,632746.4244
54447152,252,70,אשדוד,מכללה - טיכנולוגית יעד,,13,5370,167869.8088,635624.9644,34.65969765,31.81228099,2014,7/1/2015,167869.8088,635624.9644
54449833,252,70,אשדוד,בית ספר - יד שבתאי,,13,5310,167500.6919,633588.2746,34.65590804,31.79389742,2014,7/1/2015,167500.6919,633588.2746
54451796,252,70,אשדוד,בית ספר - שיקמים,,13,5310,167550.1906,633754.3122,34.65642185,31.795397,2014,7/1/2015,167550.1906,633754.3122
54452031,252,70,אשדוד,בית ספר - חזון מאיר,,13,5312,168307.5864,633184.6341,34.66444892,31.79029381,2014,7/1/2015,168307.5864,633184.6341
54451609,252,70,אשדוד,ישיבה לבנים - פרי עץ חיים,,13,5340,167340.0505,632706.5391,34.65425899,31.78593861,2014,7/1/2015,167340.0505,632706.5391
54450601,252,70,אשדוד,"בית ספר - ממ""ד חזון יעקב",,13,5312,166958.4634,633922.2789,34.65016487,31.79688467,0,,166958.4634,633922.2789
54451728,252,70,אשדוד,"בית ספר - מ""מ חופית",,13,5310,165309.2507,632483.1914,34.6328308,31.78383002,0,,165309.2507,632483.1914
54449806,252,70,אשדוד,בית ספר - על יסודי תורני נאות אסתר,,13,5332,168025.3256,633179.828,34.661469,31.79023779,0,,168025.3256,633179.828
54450669,252,70,אשדוד,"בית ספר - חרדי תש""בר",,13,5312,168188.6446,634594.0977,34.66311901,31.80299902,0,,168188.6446,634594.0977
60590766,252,70,אשדוד,"בית ספר - ממ""ד הרא""ה",,13,5312,165369.2272,632428.4686,34.63346703,31.78333937,2014,7/1/2015,165369.2272,632428.4686
54452384,252,70,אשדוד,בית ספר על יסודי מקיף ז,,13,5320,166299.9644,633194.4148,34.64325148,31.79029034,2014,7/1/2015,166299.9644,633194.4148
54448080,252,70,אשדוד,"בית ספר - ממ""ד אריאל",,13,5312,166744.03,632495.5636,34.64797777,31.78400869,2014,7/1/2015,166744.03,632495.5636
54446513,252,70,אשדוד,בית ספר מקיף ג,,13,5330,165981.2046,634047.6956,34.63983917,31.79797032,2014,7/1/2015,165981.2046,634047.6956
54452973,252,70,אשדוד,בית ספר - יצחק רבין,Yits'hak Rabin School,13,5310,165295.7566,631164.9856,34.63276148,31.77194183,0,,165295.7566,631164.9856
54448658,252,70,אשדוד,"בית ספר - מ""מ הראל",,13,5310,167738.1057,633666.5452,34.65841066,31.79461404,0,,167738.1057,633666.5452
54448505,252,70,אשדוד,"בית ספר - מ""מ גאולים",,13,5310,166264.3046,634993.2106,34.64277686,31.80651016,0,,166264.3046,634993.2106
54452745,252,70,אשדוד,"בית ספר - מ""מ ניר",,13,5310,167288.7766,634722.4967,34.65360983,31.80411615,0,,167288.7766,634722.4967
54447838,252,70,אשדוד,"בית ספר - מ""מ רתמים",,13,5310,166724.4241,631679.5565,34.64781487,31.77664903,2014,7/1/2015,166724.4241,631679.5565
54452858,252,70,אשדוד,ישיבת - בית הלוי,,13,5340,167938.2699,633896.2217,34.66051201,31.79669431,2014,7/1/2015,167938.2699,633896.2217
54446140,252,70,אשדוד,בית ספר - טכנולוגי אורט לקציני ים,,13,5330,166771.4056,636026.3229,34.64807602,31.81585024,2014,7/1/2015,166771.4056,636026.3229
54449757,252,70,אשדוד,בית ספר - כלל חסידי דעת מישרים,,13,5312,168143.8921,632928.5275,34.66273407,31.7879769,2014,7/1/2015,168143.8921,632928.5275
54450615,252,70,אשדוד,"בית ספר - ממ""ד יהל""ם",,13,5312,166354.8684,635775.3758,34.6436906,31.81356791,0,,166354.8684,635775.3758
54452845,252,70,אשדוד,גן ילדים - גן תורני תהילה לדוד,,13,5305,166471.8041,635285.5779,34.64495217,31.80915637,0,,166471.8041,635285.5779
54451882,252,70,אשדוד,בית ספר - תורני עוז והדר,,13,5312,168264.4596,633472.2532,34.66397848,31.79288563,0,,168264.4596,633472.2532
54450975,252,70,אשדוד,מוסדות התורה בית ישראל,HaTora Bet Yisra'el Institutes,13,5300,168290.9329,634634.5326,34.66419702,31.80336825,2014,7/1/2015,168290.9329,634634.5326
54450713,252,70,אשדוד,"בית ספר - מ""מ אלונים",,13,5310,166688.9,632244.3369,34.64740932,31.78174058,0,,166688.9,632244.3369
54450156,252,70,אשדוד,"בית ספר - טכנולוגי ע""ש משה קול",,13,5330,168424.7023,635093.0463,34.66558559,31.80750911,0,,168424.7023,635093.0463
54449680,252,70,אשדוד,"בית ספר - ממ""ד חב""ד",,13,5312,166330.2572,631106.4632,34.64368497,31.77146262,0,,166330.2572,631106.4632
54449236,252,70,אשדוד,גן ילדים - גן חרדי לבנות אהבת הדסה,,13,5305,167992.8909,633194.8222,34.66112575,31.79037155,0,,167992.8909,633194.8222
54446666,252,70,אשדוד,"בית ספר - על יסודי מ""מ מקיף ה",,13,5321,167089.685,632973.8796,34.65160135,31.78833804,2014,7/1/2015,167089.685,632973.8796
54448150,252,70,אשדוד,"בית ספר - מ""מ היובל",,13,5310,166432.4516,633454.0613,34.64463619,31.79263799,2014,7/1/2015,166432.4516,633454.0613
54449915,252,70,אשדוד,"בית ספר - מ""מ אור מאיר",,13,5310,168302.3289,633232.9047,34.66439088,31.79072888,2014,7/1/2015,168302.3289,633232.9047
54450228,252,70,אשדוד,בית ספר - בית יוסף,,13,5312,167737.9835,634244.4172,34.65837872,31.79982528,2014,7/1/2015,167737.9835,634244.4172
54451865,252,70,אשדוד,"בית ספר - מ""מ נוף ים",,13,5310,165142.9337,632092.7664,34.63109665,31.78030128,2014,7/1/2015,165142.9337,632092.7664
54448433,252,70,אשדוד,בית ספר - דביר,,13,5310,167989.2258,632375.3759,34.66113028,31.78298161,2014,7/1/2015,167989.2258,632375.3759
64763959,252,70,אשדוד,בית ספר - בני אברהם,,13,5312,168361.0718,633291.4318,34.66500804,31.79125931,2014,7/1/2015,168361.0718,633291.4318
54452980,252,70,אשדוד,בית ספר - חניכי הישיבות,,13,5312,168231.0001,633209.0412,34.66363902,31.79051048,2014,7/1/2015,168231.0001,633209.0412
54450462,252,70,אשדוד,ישיבת - תורת אור,,13,5340,166882.0769,635308.146,34.64928358,31.80937886,0,,166882.0769,635308.146
54449769,252,70,אשדוד,"בית ספר - מ""מ עלומים",,13,5310,167813.7746,634382.9064,34.65917169,31.8010776,0,,167813.7746,634382.9064
54452044,252,70,אשדוד,"בית ספר - ממ""ד שילה",,13,5312,167426.9781,633283.4108,34.65514599,31.7911448,0,,167426.9781,633283.4108
54451285,252,70,אשדוד,בית ספר - נועם,No'am School,13,5310,167298.5261,632862.678,34.65381224,31.78734478,0,,167298.5261,632862.678
54449514,252,70,אשדוד,גן ילדים - גן בית מלכה,,13,5305,168308.8749,634559.7597,34.66439041,31.80269475,0,,168308.8749,634559.7597
54448128,252,70,אשדוד,"בית ספר - ממ""ד שחר",,13,5312,166002.3171,634531.8839,34.64003555,31.8023377,0,,166002.3171,634531.8839
54448425,252,70,אשדוד,"בית ספר - ממ""ד מירון",,13,5312,168303.7449,634714.6693,34.66432811,31.8040915,0,,168303.7449,634714.6693
54452237,252,70,אשדוד,בית ספר - אבן ישראל,,13,5310,168171.3125,633190.7815,34.66300978,31.79034314,0,,168171.3125,633190.7815
54448396,252,70,אשדוד,בית ספר - קהילתי רעים,,13,5310,166350.4076,634510.7325,34.64371239,31.80216321,0,,166350.4076,634510.7325
54446783,252,70,אשדוד,בית ספר - תורנית מדעית,,13,5337,168107.8797,632286.1021,34.66238765,31.78218188,2014,7/1/2015,168107.8797,632286.1021
54446721,252,70,אשדוד,"בית ספר - מ""מ הדר ארזים",,13,5310,166252.4485,633980.5737,34.64270691,31.79737769,2014,7/1/2015,166252.4485,633980.5737
54449006,252,70,אשדוד,"בית ספר מ""מ מקיף ח",,13,5310,166016.0958,631595.3375,34.6403419,31.77585664,2014,7/1/2015,166016.0958,631595.3375
54448913,252,70,אשדוד,גן ילדים - גן פרטי,,13,5305,166308.6612,633501.9652,34.64332654,31.79306423,2014,7/1/2015,166308.6612,633501.9652
54450114,252,70,אשדוד,כולל - חסידי,,13,5340,168133.4869,632981.9154,34.6626214,31.78845788,2014,7/1/2015,168133.4869,632981.9154
54447369,252,70,אשדוד,מכללה - למנהל,,13,5370,168084.0227,635056.102,34.66198989,31.80716067,2014,7/1/2015,168084.0227,635056.102
54452019,252,70,אשדוד,"בית ספר - מ""מ אילנות",,13,5310,166699.0859,635670.6316,34.6473315,31.8126393,2014,7/1/2015,166699.0859,635670.6316
54448890,252,70,אשדוד,"ישיבה - ע""ש פייפא",,13,5340,168419.2274,632959.4385,34.66563943,31.78826799,2014,7/1/2015,168419.2274,632959.4385
54449035,252,70,אשדוד,מוסדות חסידי בעלז,Haside Belz Institutes,13,5300,168344.6825,634623.574,34.66476518,31.80327183,2014,7/1/2015,168344.6825,634623.574
54452336,252,70,אשדוד,בית ספר - מפתן חרמון,,13,5310,167107.4974,633928.3421,34.65173819,31.79694619,2014,7/1/2015,167107.4974,633928.3421
54446991,252,70,אשדוד,"בית ספר מקיף מ""מ ו",,13,5330,165052.9905,632292.9675,34.63013595,31.78210241,2014,7/1/2015,165052.9905,632292.9675
54451668,252,70,אשדוד,"בית ספר - מ""מ רעננים",,13,5310,166586.8304,633845.3097,34.64624499,31.79617342,2014,7/1/2015,166586.8304,633845.3097
54449405,252,70,אשדוד,"בית ספר - מ""מ שקד",,13,5310,166280.1639,632037.2866,34.64310548,31.77985446,2014,7/1/2015,166280.1639,632037.2866
54448714,252,70,אשדוד,בית ספר - תורני נוה חנה,,13,5312,168365.9933,632947.6321,34.66507801,31.78815914,2014,7/1/2015,168365.9933,632947.6321
54451248,252,70,אשדוד,"גן ילדים - גן חב""ד",Gan Chabad Kindergarten,13,5305,166406.1327,631100.4394,34.64448624,31.77141182,0,,166406.1327,631100.4394
54452834,252,70,אשדוד,פנימיה - בית ילדים נווה גלים,,13,5338,166912.372,635259.029,34.64960615,31.80893732,0,,166912.372,635259.029
54447281,252,70,אשדוד,בית ספר - אופק,,13,5310,164898.8287,631311.6059,34.62856328,31.77324517,2014,7/1/2015,164898.8287,631311.6059
54452565,252,70,אשדוד,"בית ספר - מ""מ קשת",,13,5310,166149.6382,632182.6386,34.64171958,31.78115916,2014,7/1/2015,166149.6382,632182.6386
54451657,252,70,אשדוד,מרכז חינוך תורני חרדי,Haredi Religious  Education Center,13,5300,166987.4353,633809.8683,34.65047684,31.79587228,2014,7/1/2015,166987.4353,633809.8683
54449960,252,70,אשדוד,בית ספר - צפרירים,,13,5310,165134.1101,632612.0767,34.63097459,31.78498399,2014,7/1/2015,165134.1101,632612.0767
54451197,252,70,אשדוד,"בית ספר - שז""ר",,13,5310,166849.9667,634168.6813,34.64900597,31.79910173,2014,7/1/2015,166849.9667,634168.6813
54450437,252,70,אשדוד,קריה חינוכית חורב,Horev Educational Campus,13,5300,167126.3938,633996.3005,34.65193407,31.7975599,2014,7/1/2015,167126.3938,633996.3005
54450010,252,70,אשדוד,ישיבת - נחלת מאיר,,13,5340,168181.7258,633244.236,34.66311692,31.79082566,0,,168181.7258,633244.236
54453132,252,70,אשדוד,"בית ספר - ממ""ד הקריה",,13,5312,166670.8288,633158.2792,34.6471691,31.78998167,2014,7/1/2015,166670.8288,633158.2792
54447267,252,70,אשדוד,"בית ספר מ""מ מקיף ט",,13,5310,165568.5323,632078.0169,34.63559053,31.78018842,2014,7/1/2015,165568.5323,632078.0169
54446771,252,7100,אשקלון,בית ספר - מדעים,,13,5312,159910.1215,619896.0658,34.57659601,31.67005119,2014,7/1/2015,159910.1215,619896.0658
54451586,252,7100,אשקלון,בית ספר - לבנים מעיין חיים ושלום,,13,5310,160288.802,619615.1286,34.58060592,31.66753728,2014,7/1/2015,160288.802,619615.1286
54452086,252,7100,אשקלון,בית ספר - קהילתי הראל,,13,5310,158145.3873,618851.5266,34.55805314,31.66053859,0,,158145.3873,618851.5266
54448467,252,7100,אשקלון,בית ספר - צביה,,13,5337,158090.1134,618539.8325,34.55748984,31.65772478,2014,7/1/2015,158090.1134,618539.8325
54449119,252,7100,אשקלון,"בית ספר - מ""מ דקל",,13,5310,157778.0386,617858.4435,34.55424243,31.65156327,2014,7/1/2015,157778.0386,617858.4435
54447340,252,7100,אשקלון,בית ספר כפר דרום,,13,5300,158031.7612,617979.0322,34.55690971,31.65266434,0,,158031.7612,617979.0322
54451862,252,7100,אשקלון,"בית ספר - טכנולוגי אורט ע""ש אדיבי",,13,5330,159130.8407,618503.2797,34.56846451,31.6574503,0,,159130.8407,618503.2797
54448845,252,7100,אשקלון,גן ילדים - גן מנשה,,13,5305,160714.9011,617859.985,34.58520379,31.65173116,2014,7/1/2015,160714.9011,617859.985
54448657,252,7100,אשקלון,מקיף אורט אפרידר רונסון חטיבת אשקלון,,13,5330,158972.4836,619936.2848,34.56670666,31.67036485,0,,158972.4836,619936.2848
54452782,252,7100,אשקלון,"בית ספר - ממ""ד טכנולוגי אמי""ת",,13,5332,159442.9676,618643.8526,34.57174668,31.65873435,0,,159442.9676,618643.8526
54448462,252,7100,אשקלון,"בית ילדים נווה הרוא""ה",Neve HaRo'e Children's Home,13,5338,160649.5738,617703.4821,34.58452445,31.65031646,0,,160649.5738,617703.4821
54449062,252,7100,אשקלון,"בית ספר - פיס מ""מ כוכב הצפון",,13,5310,161007.7087,620172.7595,34.588153,31.67260286,2014,7/1/2015,161007.7087,620172.7595
54448286,252,7100,אשקלון,"בית ספר - מקיף עירוני ד ע""ש רבין",,13,5330,160334.259,621259.1933,34.58098616,31.68236586,0,,160334.259,621259.1933
54449973,252,7100,אשקלון,"גן ילדים - גן ממ""ד ניצן",,13,5305,158761.1328,618269.0306,34.56458116,31.65531835,0,,158761.1328,618269.0306
54451301,252,7100,אשקלון,בית ספר - אור החיים,,13,5312,158256.0377,618153.5045,34.55926326,31.65424972,0,,158256.0377,618153.5045
54448980,252,7100,אשקלון,בית ספר - תורני אסף מימון,,13,5312,161354.814,619690.5866,34.59184169,31.66827222,2014,7/1/2015,161354.814,619690.5866
54448028,252,7100,אשקלון,"ישיבה - ע""ש הבן איש חי",,13,5340,158767.2924,618911.4389,34.56460639,31.66111193,0,,158767.2924,618911.4389
54452647,252,7100,אשקלון,המרכז להכשרה טכנולוגית,Technological Training Center,13,5300,161048.4782,618276.771,34.58869571,31.65550678,2014,7/1/2015,161048.4782,618276.771
54450273,252,7100,אשקלון,בית ספר - מוריה,,13,5312,158897.7673,618978.6763,34.5659779,31.66172517,2014,7/1/2015,158897.7673,618978.6763
54447000,252,7100,אשקלון,"בית ספר - מ""מ אומנויות",,13,5330,160968.2622,619076.278,34.58780238,31.66271271,0,,160968.2622,619076.278
54446961,252,7100,אשקלון,"חווה לחינוך חקלאי אורות הסביבה ע""ש עלי בן צבי",,13,5300,158531.8467,619909.6243,34.56206204,31.67010112,0,,158531.8467,619909.6243
54447317,252,7100,אשקלון,"בית ספר - מעיין חיים ושלום ש""ס לבנים",,13,5310,160198.8412,618142.5886,34.57974623,31.65425318,2014,7/1/2015,160198.8412,618142.5886
54453140,252,7100,אשקלון,בית ספר נוף ים ב,,13,5310,159181.2449,621735.282,34.56879741,31.68659922,2014,7/1/2015,159181.2449,621735.282
54451069,252,7100,אשקלון,מרכז תורני חינוכי נצח ישראל,Netsah Yisra'el Educational Religious Center,13,5300,157654.5661,618060.5835,34.55292802,31.65337954,2014,7/1/2015,157654.5661,618060.5835
54451226,252,7100,אשקלון,"בית ספר - תורני ע""ש הרב עוזיאל",,13,5312,158933.0473,618642.732,34.56637058,31.65869747,0,,158933.0473,618642.732
54452392,252,7100,אשקלון,"בית ספר - חב""ד אור חיה",,13,5312,158529.9771,617922.6581,34.56216562,31.6521825,0,,158529.9771,617922.6581
54449382,252,7100,אשקלון,בית ספר - תיכונית צביה,,13,5337,160529.6952,618508.1065,34.58321239,31.65756648,2014,7/1/2015,160529.6952,618508.1065
54446245,252,7100,אשקלון,"מקיף מ""מ עירוני א",Ironi Alef Makif,13,5330,159538.6525,619451.9852,34.57270618,31.66602712,2014,7/1/2015,159538.6525,619451.9852
54451827,252,7100,אשקלון,"בית ספר - ממ""ד ברנע",,13,5312,159864.1656,621253.6177,34.57602897,31.68229125,0,,159864.1656,621253.6177
54446150,252,7100,אשקלון,המכללה - האקדמית אשקלון,,13,5370,159451.8838,619830.0598,34.57176818,31.66943208,0,,159451.8838,619830.0598
54450778,252,7100,אשקלון,בית ספר - עירוני ב,,13,5332,159466.9794,619235.4853,34.57196369,31.66407097,0,,159466.9794,619235.4853
54448216,252,7100,אשקלון,"בית ספר - מ""מ קהילתי אילנות",,13,5310,158946.0764,619791.558,34.56643714,31.66905831,0,,158946.0764,619791.558
54451549,252,7100,אשקלון,"בית ספר - ממ""ד סיני",,13,5312,158995.9166,620104.5624,34.56694339,31.67188362,0,,158995.9166,620104.5624
54446916,252,7100,אשקלון,"בית ספר - מ""מ קהילתי ע""ש ח.ארלוזורוב",,13,5310,158769.384,618730.0433,34.56463966,31.65947621,2014,7/1/2015,158769.384,618730.0433
54447342,252,7100,אשקלון,"בית ספר - מ""מ בית יחזקאל ע""ש דר יחזקאל זונאבנד",,13,5310,159059.1804,620867.8212,34.5675635,31.67877003,2014,7/1/2015,159059.1804,620867.8212
54448986,252,7100,אשקלון,ישיבת - נחלת אשקלון,,13,5340,159038.8669,619837.9215,34.5674127,31.66948131,2014,7/1/2015,159038.8669,619837.9215
54452778,252,7100,אשקלון,"מקיף אורט ע""ש הנרי רונסון",Henry Ronson Makif  School,13,5330,159515.1704,619620.3892,34.5724483,31.66754457,2014,7/1/2015,159515.1704,619620.3892
54447410,252,7100,אשקלון,"בית ספר - רמב""ם",,13,5312,160510.4977,618372.551,34.58301812,31.65634304,2014,7/1/2015,160510.4977,618372.551
54451420,252,7100,אשקלון,בית ספר נוף ים א,,13,5310,159184.1706,621814.7761,34.56882338,31.68731625,2014,7/1/2015,159184.1706,621814.7761
54448475,252,7100,אשקלון,"מוסדות היכל דוד אשקלון של ש""ס",Hekhal David Ashkelon Shas Institutes,13,5340,157840.1256,617740.7816,34.55490435,31.65050553,2014,7/1/2015,157840.1256,617740.7816
54446388,252,7100,אשקלון,"בית ספר - מ""מ קהילתי נווה דקלים",,13,5310,160586.3688,620657.315,34.583681,31.67695107,2014,7/1/2015,160586.3688,620657.315
54451786,252,6000,באקה אל-גרביה,בית ספר - אלקאסמי,,13,5330,203356.2685,702227.6984,35.03335514,32.41395101,2014,7/1/2015,203356.2685,702227.6984
54449690,252,6000,באקה אל-גרביה,גן ילדים - בראעב אלע'דיי,,13,5305,204117.8784,702086.0622,35.04145386,32.41268455,2014,7/1/2015,204117.8784,702086.0622
54449583,252,6000,באקה אל-גרביה,בית ספר אלרחמה לחינוך מיוחד,,13,5300,205122.7775,702924.2762,35.05212376,32.4202565,2014,7/1/2015,205122.7775,702924.2762
54452411,252,6000,באקה אל-גרביה,מכללת - אל קאסמי,,13,5370,203416.6534,703086.9987,35.0339825,32.4217006,2014,7/1/2015,203416.6534,703086.9987
54449431,252,6000,באקה אל-גרביה,בית ספר - עומר בן אלח'טאב,,13,5310,204604.6187,701419.3819,35.04663863,32.40667935,0,,204604.6187,701419.3819
54448682,252,6000,באקה אל-גרביה,בית ספר - ממלכתי אל חכאמה,,13,5310,204995.5772,702943.5107,35.05077114,32.4204283,0,,204995.5772,702943.5107
54447567,252,6000,באקה אל-גרביה,בית ספר  אלעטאא ואדי,,13,5300,204876.3806,701459.5841,35.04952679,32.40704546,2014,7/1/2015,204876.3806,701459.5841
54451378,252,6000,באקה אל-גרביה,בית ספר - אלשאפעי,,13,5310,205180.0718,702994.0069,35.05273182,32.42088603,2014,7/1/2015,205180.0718,702994.0069
65108527,252,6000,באקה אל-גרביה,אלח'וארמזי,,13,5310,203524.3248,703906.4495,35.0351134,32.42909152,2014,7/1/2015,203524.3248,703906.4495
65108540,252,6000,באקה אל-גרביה,אבן סינא,,13,5320,204027.8287,703789.0961,35.04046879,32.42804037,2014,7/1/2015,204027.8287,703789.0961
54448006,252,6000,באקה אל-גרביה,בית ספר - אל ג'זאלי,,13,5310,204123.7087,702671.3172,35.04150635,32.41796215,0,,204123.7087,702671.3172
54451649,252,6000,באקה אל-גרביה,גן ילדים,Kindergarten,13,5305,205062.0062,702975.5354,35.05147689,32.42071795,0,,205062.0062,702975.5354
54449113,252,6000,באקה אל-גרביה,בית ספר - אבו ח'לדון,,13,5310,203406.1435,703224.8309,35.03386842,32.42294335,0,,203406.1435,703224.8309
54451709,252,6000,באקה אל-גרביה,גן ילדים - אשכול גנים ריאד סאלחי,,13,5305,203768.3673,702040.2863,35.03773913,32.4122669,2014,7/1/2015,203768.3673,702040.2863
54447127,252,2530,באר יעקב,בית ספר - נווה ארץ,,13,5310,184902.3068,649098.2283,34.83909717,31.93442721,0,,184902.3068,649098.2283
54450910,252,2530,באר יעקב,"סמינר באר יעקוב ע""ש שמואל ופני וולפסון",,13,5370,184613.2463,649457.7707,34.83602744,31.93766074,0,,184613.2463,649457.7707
54446676,252,2530,באר יעקב,ישיבת - נוה ארץ,,13,5340,185376.4498,649378.6624,34.84410133,31.9369705,0,,185376.4498,649378.6624
54452807,252,2530,באר יעקב,בית ספר - בית יעקב,,13,5332,184962.0992,650221.7093,34.83968945,31.9445606,2014,7/1/2015,184962.0992,650221.7093
54446273,252,2530,באר יעקב,"בית ספר - חקלאי ע""ש יוהנה ז'בוטינסקי",,13,5330,183542.5748,649868.8515,34.82468952,31.94133451,2014,7/1/2015,183542.5748,649868.8515
65107129,252,2530,באר יעקב,גן ילדים - גן סביון,Gan Savyon Kindergarten,13,5305,184370.4267,649651.8773,34.83345251,31.93940372,2014,7/1/2015,184370.4267,649651.8773
54448548,252,2530,באר יעקב,בית ספר - גני מנחם,,13,5310,184800.5382,649722.592,34.83799863,31.94005463,2014,7/1/2015,184800.5382,649722.592
54448805,252,2530,באר יעקב,"בית ספר - ממלכתי דתי רשב""י",,13,5312,184459.7209,650333.3236,34.83437221,31.94555176,2014,7/1/2015,184459.7209,650333.3236
65108091,252,2530,באר יעקב,גן ילדים - גן דקל,Gan Dekel Kindergarten,13,5305,185283.7802,649931.8758,34.84310181,31.94195661,2014,7/1/2015,185283.7802,649931.8758
65108092,252,2530,באר יעקב,גן ילדים - גן דולב,Gan Dolev Kindergarten,13,5305,185388.3992,650061.0631,34.84420369,31.94312476,2014,7/1/2015,185388.3992,650061.0631
65108093,252,2530,באר יעקב,גן ילדים - גן דובדבן,Gan Duvdevan Kindergarten,13,5305,185337.0843,650065.8611,34.84366082,31.94316649,2014,7/1/2015,185337.0843,650065.8611
65107514,252,2530,באר יעקב,בית ספר - צאלון,,13,5310,184379.8805,649529.4183,34.83355693,31.93829968,2014,7/1/2015,184379.8805,649529.4183
65107515,252,2530,באר יעקב,בית ספר - תלמים,,13,5310,185498.6426,650028.0412,34.84537078,31.94283027,2014,7/1/2015,185498.6426,650028.0412
65107839,252,2530,באר יעקב,גן ילדים - גן נחליאל,,13,5305,184375.9248,649264.4238,34.83352469,31.93590983,2014,7/1/2015,184375.9248,649264.4238
54452465,252,2530,באר יעקב,גן ילדים - גן ערבה,Gan Arava Kindergarten,13,5305,184887.4629,649354.1408,34.83893106,31.93673458,2014,7/1/2015,184887.4629,649354.1408
54449989,252,2530,באר יעקב,בית ספר - ממלכתי הדרים,,13,5310,184540.5004,649243.2581,34.83526586,31.93572403,2014,7/1/2015,184540.5004,649243.2581
54453106,252,2530,באר יעקב,ישיבת - באר יעקוב,,13,5340,184548.0315,649839.9666,34.83532399,31.94110539,2014,7/1/2015,184548.0315,649839.9666
54452836,252,9000,באר שבע,האוניברסיטה - הפתוחה באר שבע,,13,5380,179507.7353,572444.8784,34.78515792,31.24295558,0,,179507.7353,572444.8784
54450440,252,9000,באר שבע,בית ספר - בן גוריון,,13,5310,181916.2177,575383.5957,34.81032983,31.26953971,0,,181916.2177,575383.5957
54450456,252,9000,באר שבע,גן ילדים - גן המעפילים,,13,5305,181522.1307,573107.7254,34.8062781,31.24900101,0,,181522.1307,573107.7254
54447338,252,9000,באר שבע,"בית ספר - אמי""ת",,13,5337,181022.3865,573763.7772,34.80100674,31.25490154,0,,181022.3865,573763.7772
54449916,252,9000,באר שבע,גן ילדים - גן יהלום,,13,5305,178934.7456,574052.6222,34.7790782,31.25743595,0,,178934.7456,574052.6222
54451216,252,9000,באר שבע,ישיבת - באר שבע,,13,5340,179305.323,572226.081,34.78304195,31.24097531,0,,179305.323,572226.081
54451246,252,9000,באר שבע,בית ספר - גאולים,,13,5310,179265.3299,572168.213,34.78262447,31.24045203,0,,179265.3299,572168.213
54450724,252,9000,באר שבע,"בית ספר - מ""מ לאומניות אפיק",,13,5310,177838.1997,574495.4393,34.76754756,31.26139105,0,,177838.1997,574495.4393
54446775,252,9000,באר שבע,"מקיף י""א ע""ש רבין",Rabin Makif Yod Alef,13,5330,177693.4114,574255.1705,34.76603744,31.25921891,0,,177693.4114,574255.1705
54446716,252,9000,באר שבע,בית ספר - משכן מאיר,,13,5312,180203.551,574336.608,34.79238784,31.26004059,0,,180203.551,574336.608
54447850,252,9000,באר שבע,"בית ספר - אור ע""ש זבולון המר",,13,5312,177545.9077,574082.7414,34.76449603,31.2576585,0,,177545.9077,574082.7414
54446885,252,9000,באר שבע,"בית ספר - מקיף ע""ש רגר",,13,5330,177959.3519,571665.8257,34.76893671,31.23587532,0,,177959.3519,571665.8257
54448234,252,9000,באר שבע,"תל""ם תיכון של המכללה למינהל",,13,5330,181127.7306,573388.1943,34.80212705,31.25151765,0,,181127.7306,573388.1943
54449953,252,9000,באר שבע,גן ילדים - גן נעמת,,13,5305,181722.4826,573742.554,34.80835744,31.254733,0,,181722.4826,573742.554
54450791,252,9000,באר שבע,בית ספר - טוביה,,13,5310,177205.1784,574695.4009,34.76089299,31.26317171,0,,177205.1784,574695.4009
54450864,252,9000,באר שבע,בית ספר - רימון,,13,5310,177386.8945,574009.7215,34.76282968,31.25699422,0,,177386.8945,574009.7215
54452264,252,9000,באר שבע,בית ספר - בארי,,13,5310,179795.2829,572549.5466,34.78817218,31.24390939,0,,179795.2829,572549.5466
54452951,252,9000,באר שבע,ישיבה - עין יצחק,,13,5340,179530.921,575091.8425,34.78529582,31.26682915,0,,179530.921,575091.8425
54451904,252,9000,באר שבע,"מכללת - עמל ע""ש ליידי דיוויס",,13,5370,180157.6886,573476.6292,34.79194006,31.25228296,0,,180157.6886,573476.6292
54451920,252,9000,באר שבע,בית ספר - מצפה,,13,5310,179850.3374,574718.1887,34.78866437,31.2634701,0,,179850.3374,574718.1887
54448083,252,9000,באר שבע,מכללת - רדיו דרום,,13,5370,181442.4681,574184.8808,34.80540095,31.25871322,0,,181442.4681,574184.8808
54446934,252,9000,באר שבע,בית ספר - אוריין,,13,5310,178546.8007,573770.2722,34.77501684,31.25487591,0,,178546.8007,573770.2722
54446980,252,9000,באר שבע,"בית ספר - מ""מ קהילתי גולדה מאיר",,13,5310,178432.6183,574744.1303,34.77377822,31.26365504,0,,178432.6183,574744.1303
54448762,252,9000,באר שבע,מרכז הברכה סמינר מורים,"""Merkaz HaBrakha"" Teachers Seminary",13,5370,180890.2153,573747.0913,34.7996198,31.25474669,0,,180890.2153,573747.0913
54449884,252,9000,באר שבע,גן ילדים - גן צוציקים,,13,5305,177469.2123,574913.6973,34.763656,31.26515004,0,,177469.2123,574913.6973
54449859,252,9000,באר שבע,ישיבה - מוסדות המעין בנגב,,13,5340,179543.1524,572213.1366,34.78553892,31.24086673,0,,179543.1524,572213.1366
54450783,252,9000,באר שבע,גן ילדים - גן דליה,Gan Dalya Kindergarten,13,5305,178247.4356,575473.6291,34.77180391,31.27022778,0,,178247.4356,575473.6291
54452084,252,9000,באר שבע,בית ספר - קורצק,,13,5310,178990.9581,573538.188,34.77968914,31.25279826,0,,178990.9581,573538.188
54446770,252,9000,באר שבע,בית ספר - יעלים,,13,5320,180243.8825,573492.983,34.7928443,31.25243335,0,,180243.8825,573492.983
54446791,252,9000,באר שבע,בית ספר - נתיבות יורם,,13,5310,179847.0704,573773.451,34.78866743,31.25494947,0,,179847.0704,573773.451
54452299,252,9000,באר שבע,בית ספר - יסודות,,13,5312,179808.1237,574074.9334,34.78824662,31.25766719,0,,179808.1237,574074.9334
54446613,252,9000,באר שבע,בית ספר - קהילתי גבים,,13,5310,177995.8761,573968.8553,34.76922481,31.25664746,2014,7/1/2015,177995.8761,573968.8553
54452638,252,9000,באר שבע,בית ספר - אמית אפיקים בנגב,,13,5312,181192.2994,575539.674,34.8027227,31.27092383,2014,7/1/2015,181192.2994,575539.674
54447461,252,9000,באר שבע,מכללת - קיי,,13,5370,179098.308,575530.2602,34.78073584,31.2707683,2014,7/1/2015,179098.308,575530.2602
54447704,252,9000,באר שבע,בית ספר מקיף ג,,13,5300,179267.303,573950.622,34.7825737,31.25652752,2014,7/1/2015,179267.303,573950.622
54448246,252,9000,באר שבע,בית ספר - אחווה,,13,5310,179578.5967,573196.3589,34.78587186,31.24973556,2014,7/1/2015,179578.5967,573196.3589
54449176,252,9000,באר שבע,"המכללה - האקדמית להנדסה ע""ש סמי שמעון",,13,5370,179871.6524,573201.6627,34.78894809,31.24979338,2014,7/1/2015,179871.6524,573201.6627
54452224,252,9000,באר שבע,אוניברסיטת - בן גוריון בנגב,,13,5380,180727.0191,572796.4735,34.79794324,31.24616771,2014,7/1/2015,180727.0191,572796.4735
54446518,252,9000,באר שבע,בית ספר - רננות מזור,,13,5310,180602.0313,574047.2363,34.79658269,31.25744412,0,,180602.0313,574047.2363
54452707,252,9000,באר שבע,"קרית החינוך הדתית אמי""ת",,13,5300,179694.5297,575003.9019,34.78701715,31.26604162,0,,179694.5297,575003.9019
54449407,252,9000,באר שבע,גן ילדים - גן ספיר,Gan Sappir Kindergarten,13,5305,178896.7341,574075.1857,34.77867822,31.25763812,0,,178896.7341,574075.1857
54446610,252,9000,באר שבע,בית אריאל מרכז למדעים,Bet Ari'el Science Centre,13,5300,181369.2824,573766.533,34.80464849,31.25493778,0,,181369.2824,573766.533
54452401,252,9000,באר שבע,סמינר תיכון בית יעקב החדש,Tikhon Bet Ya'akov HeHadash Seminary,13,5330,180618.1456,574893.1816,34.79671907,31.26507418,0,,180618.1456,574893.1816
54448855,252,9000,באר שבע,ישיבה - משכן מאיר,,13,5340,179979.342,572363.3068,34.79011162,31.24223594,0,,179979.342,572363.3068
54452607,252,9000,באר שבע,בית ספר - נוה במדבר,,13,5310,178044.5301,574739.5743,34.76970375,31.26360023,0,,178044.5301,574739.5743
54452983,252,9000,באר שבע,ישיבת - נתיב השבים,,13,5340,180640.2271,573052.0001,34.79702225,31.24846941,0,,180640.2271,573052.0001
54451035,252,9000,באר שבע,בית ספר - אמירים,,13,5310,180875.6133,575246.1573,34.79940876,31.26826619,0,,180875.6133,575246.1573
54451454,252,9000,באר שבע,גן ילדים - גן שליו,Gan Slav Kindergarten,13,5305,181786.6314,573742.2847,34.8090309,31.25473264,0,,181786.6314,573742.2847
54446725,252,9000,באר שבע,"בית ספר - מקיף ע""ש קוהל",,13,5330,178331.0632,573063.1004,34.77278097,31.2484904,2014,7/1/2015,178331.0632,573063.1004
54447388,252,9000,באר שבע,בית ספר - בר אילן,,13,5310,180256.735,572840.3988,34.79300475,31.24654817,2014,7/1/2015,180256.735,572840.3988
54448183,252,9000,באר שבע,בית ספר - נאות לון,,13,5310,177493.7926,572805.3162,34.76400239,31.24613565,2014,7/1/2015,177493.7926,572805.3162
54452803,252,9000,באר שבע,בית ספר - דגניה,,13,5310,181720.7853,573186.8713,34.80836054,31.24972126,2014,7/1/2015,181720.7853,573186.8713
54448627,252,9000,באר שבע,"גן ילדים - רשת גני חב""ד",,13,5305,180125.4358,575723.8624,34.79151322,31.2725495,2014,7/1/2015,180125.4358,575723.8624
54452481,252,9000,באר שבע,בית ספר - בית יעקב לבנות,,13,5312,179673.3503,571676.7839,34.78692686,31.23603383,2014,7/1/2015,179673.3503,571676.7839
54452545,252,9000,באר שבע,בית ספר - יחדיו,,13,5310,178742.441,571872.6621,34.77714782,31.23776835,2014,7/1/2015,178742.441,571872.6621
54447067,252,9000,באר שבע,בית ספר - רמות,,13,5310,181343.6405,575816.9042,34.80430126,31.27342911,2014,7/1/2015,181343.6405,575816.9042
54452345,252,9000,באר שבע,כפר רפאל קהילה שיקומית,Kfar Refa'el Rehabilitation Community,13,5300,175916.1092,574116.4272,34.7473839,31.25790259,2014,7/1/2015,175916.1092,574116.4272
54446252,252,9000,באר שבע,מרכז ספורט אוניברסיטת בן גוריון,Ben Gurion university  Sports Center,13,5380,181616.8721,574526.2853,34.80721909,31.261798,2014,7/1/2015,181616.8721,574526.2853
54446323,252,9000,באר שבע,"בי""ס טכני חיל האוויר",Air Force Technological College,13,5300,179252.5679,570945.4979,34.78253952,31.22942398,2014,7/1/2015,179252.5679,570945.4979
54451241,252,9000,באר שבע,בית ספר - עמית,,13,5310,179289.746,575249.3729,34.78275723,31.26824162,2014,7/1/2015,179289.746,575249.3729
54451406,252,9000,באר שבע,"בית ספר - מ""מ נווה שלום",,13,5310,178401.1386,571790.4348,34.77356872,31.23701479,2014,7/1/2015,178401.1386,571790.4348
54446214,252,9000,באר שבע,אוניברסיטת - בן גוריון,,13,5380,181153.2663,574647.2103,34.80234699,31.26287348,2014,7/1/2015,181153.2663,574647.2103
54447756,252,9000,באר שבע,בית ספר - מקיף חי,,13,5330,180145.9451,573386.2931,34.79182032,31.25146783,2014,7/1/2015,180145.9451,573386.2931
54452423,252,9000,באר שבע,בית ספר - מנחם בגין,,13,5310,177600.8994,575297.1585,34.76502262,31.26861317,2014,7/1/2015,177600.8994,575297.1585
54452624,252,9000,באר שבע,"המכללה - הטכנולוגית ב""ש",,13,5370,180155.7099,573301.2612,34.79192617,31.25070126,2014,7/1/2015,180155.7099,573301.2612
54448255,252,9000,באר שבע,"קרית אוניברסיטת בן גוריון ע""ש א.ברגמן",The David Bergmann Campus of the Ben Gurion Unive*,13,5380,180945.4454,573448.8801,34.80021109,31.25205897,2014,7/1/2015,180945.4454,573448.8801
54452304,252,9000,באר שבע,גן ילדים - גן שיר,,13,5305,178755.6949,571832.98,34.77728855,31.23741092,2014,7/1/2015,178755.6949,571832.98
54451909,252,9000,באר שבע,בית ספר - אשל אברהם,,13,5310,179193.5864,575312.8173,34.78174502,31.2688105,2014,7/1/2015,179193.5864,575312.8173
54452763,252,9000,באר שבע,גן ילדים - גן שומרון,,13,5305,177641.6549,572855.9264,34.76555245,31.24659741,2014,7/1/2015,177641.6549,572855.9264
54449603,252,9000,באר שבע,בית ספר - יהושע,,13,5310,177609.3525,571875.0174,34.7652543,31.23774951,2014,7/1/2015,177609.3525,571875.0174
54450671,252,9000,באר שבע,בית ספר - תורני לבנות בית יעקוב,,13,5310,180155.2414,575472.868,34.79183604,31.2702868,2014,7/1/2015,180155.2414,575472.868
54450927,252,9000,באר שבע,בית ספר - ממלכתי חזון עובדיה,,13,5312,181720.9617,573575.7005,34.80834775,31.2532281,2014,7/1/2015,181720.9617,573575.7005
54446466,252,9000,באר שבע,ישיבת - בני עקיבא אוהל שלמה,,13,5340,179959.5282,575697.1162,34.78977219,31.27230266,2014,7/1/2015,179959.5282,575697.1162
54446959,252,9000,באר שבע,"קרית אוניברסיטת בן גוריון ע""ש דוד טוביה",The David Tuviyyahu Campus of the Ben Gurion Univ*,13,5380,181125.0983,572845.4434,34.80212018,31.24662252,2014,7/1/2015,181125.0983,572845.4434
54447389,252,9000,באר שבע,פנימיה - לילדים עוגן,,13,5338,178197.0461,574825.6504,34.77130151,31.26438194,2014,7/1/2015,178197.0461,574825.6504
54452922,252,9000,באר שבע,"מרכז לילדים נפגעים בי""ס מגן",Magen School Hurt Children Center,13,5300,179352.6099,575292.9433,34.78341555,31.26863674,2014,7/1/2015,179352.6099,575292.9433
54453137,252,9000,באר שבע,בית ספר - ממלכתי בית יעקב לבנים,,13,5312,179487.1848,571579.4453,34.7849767,31.23514958,2014,7/1/2015,179487.1848,571579.4453
54451485,252,9000,באר שבע,גן ילדים - גן דקל,Gan Dekel Kindergarten,13,5305,181885.1371,575295.4112,34.81000679,31.26874338,2014,7/1/2015,181885.1371,575295.4112
54451390,252,9000,באר שבע,"בית ספר - מ""מ אילנות",,13,5310,178587.3784,573530.813,34.7754526,31.25271767,2014,7/1/2015,178587.3784,573530.813
54452344,252,9000,באר שבע,המכללה - הטכנולוגית חיל האוויר,,13,5370,176638.143,573674.4145,34.75498318,31.25394287,2014,7/1/2015,176638.143,573674.4145
54446904,252,9000,באר שבע,בית ספר - רעות,,13,5310,179647.4122,573010.5281,34.78660165,31.24806192,2014,7/1/2015,179647.4122,573010.5281
54446740,252,9000,באר שבע,בית ספר - מענית,,13,5310,179976.7334,571041.0065,34.79013629,31.23031008,2014,7/1/2015,179976.7334,571041.0065
54452658,252,9000,באר שבע,בית ספר - טובייה,,13,5330,177301.993,574667.2682,34.76191066,31.26292149,2014,7/1/2015,177301.993,574667.2682
54452684,252,9000,באר שבע,"בית ספר - המאוחד דתי אמי""ת",,13,5321,179017.1929,574078.9308,34.77994273,31.25767608,2014,7/1/2015,179017.1929,574078.9308
54447707,252,9000,באר שבע,בית ספר מקיף א,,13,5330,180989.5589,573603.4585,34.80066826,31.25345456,2014,7/1/2015,180989.5589,573603.4585
54449287,252,9000,באר שבע,ישיבה - חרדית,,13,5340,178217.255,574684.3243,34.77151952,31.26310805,2014,7/1/2015,178217.255,574684.3243
54449418,252,9000,באר שבע,בית ספר - קהילתי על אזורי אולומות,,13,5310,180090.0352,575432.082,34.79115297,31.26991676,2014,7/1/2015,180090.0352,575432.082
54450081,252,9000,באר שבע,מרכז לימודי ישראל יפה,,13,5300,179480.664,572388.131,34.78487601,31.24244285,2014,7/1/2015,179480.664,572388.131
54450373,252,9000,באר שבע,גן ילדים - גן שולה,,13,5305,179443.2172,571572.433,34.78451548,31.23508483,2014,7/1/2015,179443.2172,571572.433
54452017,252,9000,באר שבע,"בית ספר - אמי""ת נתיבי עם",,13,5312,178303.4494,572922.124,34.77249688,31.24721797,2014,7/1/2015,178303.4494,572922.124
54451418,252,9000,באר שבע,בית ספר - עוצר חיים,,13,5310,179062.4376,574984.2685,34.78038122,31.26584281,2014,7/1/2015,179062.4376,574984.2685
54447337,252,9000,באר שבע,"בית ספר - אמי""ת מרכז טכנולוגי דתי",,13,5332,180309.6426,575783.6852,34.79344511,31.27309523,2014,7/1/2015,180309.6426,575783.6852
54447469,252,9000,באר שבע,בית ספר - אוצר החיים,,13,5310,180073.4086,575091.7176,34.79099178,31.26684648,2014,7/1/2015,180073.4086,575091.7176
54449273,252,9000,באר שבע,בית ספר - לבנות אוהל שלמה,,13,5337,178144.2116,573873.2664,34.77078606,31.25579061,2014,7/1/2015,178144.2116,573873.2664
54453060,252,9000,באר שבע,ישיבת - באר יצחק,,13,5340,178906.5897,575032.4252,34.77874294,31.26627172,2014,7/1/2015,178906.5897,575032.4252
54450606,252,9000,באר שבע,פנימיה - עדנים,,13,5338,179565.6352,572006.0747,34.78578316,31.23900002,2014,7/1/2015,179565.6352,572006.0747
64763984,252,9000,באר שבע,גן ילדים - גן צופית,Gan Tsufit Kindergarten,13,5305,177602.4753,571217.9529,34.76520953,31.23182324,2014,7/1/2015,177602.4753,571217.9529
54449435,252,9000,באר שבע,בית ספר - אשכול,,13,5310,178687.9308,572507.8243,34.77654983,31.24349493,2014,7/1/2015,178687.9308,572507.8243
54452074,252,9000,באר שבע,"בית ספר - רמב""ם",,13,5312,179125.3513,573440.891,34.78110393,31.2519254,2014,7/1/2015,179125.3513,573440.891
54449961,252,9000,באר שבע,"בית ספר - מ""מ שז""ר",,13,5310,178560.2062,574322.149,34.77513504,31.25985371,0,,178560.2062,574322.149
54452528,252,9000,באר שבע,החווה החקלאית להוראת מדעי החקלאות,HaHavva HaHakla'it LeHora'at Mada'e HaHakla'ut,13,5300,176194.3893,574098.6008,34.75030624,31.25775218,2014,7/1/2015,176194.3893,574098.6008
54449685,252,9000,באר שבע,בית ספר - מצדה מדערום,,13,5310,179555.7858,572377.4368,34.78566499,31.24234897,2014,7/1/2015,179555.7858,572377.4368
54448723,252,9000,באר שבע,מכללת - אתגר,,13,5370,180559.4077,573334.7919,34.79616286,31.2510172,2014,7/1/2015,180559.4077,573334.7919
54451614,252,9000,באר שבע,בית ספר - לבנות בנות חייל,,13,5312,179280.9228,575128.9278,34.78266942,31.26715503,0,,179280.9228,575128.9278
54446675,252,9000,באר שבע,"בית ספר - ח""ת עץ חיים",,13,5312,180881.5307,574842.2918,34.79948645,31.26462395,2014,7/1/2015,180881.5307,574842.2918
54446782,252,9000,באר שבע,בית ספר - היובל,,13,5310,177053.8313,574859.0721,34.75929703,31.26464235,2014,7/1/2015,177053.8313,574859.0721
54446752,252,9000,באר שבע,בית ספר - מקיף ז' עמל,,13,5330,181234.5571,575414.0503,34.80317121,31.26979223,2014,7/1/2015,181234.5571,575414.0503
54453086,252,9000,באר שבע,בית ספר - עוזיאל,,13,5312,180103.6875,574562.3014,34.79133051,31.26207274,2014,7/1/2015,180103.6875,574562.3014
54446510,252,9000,באר שבע,כפר ילדים אשלים,Ashalim Children's Village,13,5338,180211.6459,571061.0592,34.79260107,31.23049886,2014,7/1/2015,180211.6459,571061.0592
65109635,252,482,בועיינה-נוג'ידאת,חטיבת ביניים ותיכון - נוג'ידאת,,13,5320,235101.9335,745939.5601,35.37156407,32.80811616,2014,7/1/2015,235101.9335,745939.5601
65109542,252,482,בועיינה-נוג'ידאת,בית ספר - אלארזי,,13,5310,233863.9181,745638.2818,35.35834068,32.80541649,2014,7/1/2015,233863.9181,745638.2818
65109636,252,482,בועיינה-נוג'ידאת,בית ספר יסודי - אלנאגאה,,13,5310,234412.7586,745918.0198,35.36420517,32.80793153,2014,7/1/2015,234412.7586,745918.0198
65108849,252,4001,בוקעאתא,בית ספר יסודי,School,13,5310,272702.4097,789584.1466,35.7755571,33.20044647,2014,7/1/2015,272702.4097,789584.1466
65108887,252,4001,בוקעאתא,בית ספר חטיבת ביניים,School,13,5320,272580.7858,790394.4914,35.7743001,33.20775846,2014,7/1/2015,272580.7858,790394.4914
65108955,252,4001,בוקעאתא,בית ספר חטיבת ביניים בוקעאתא,School,13,5310,273292.3423,789682.9234,35.7818895,33.20130784,2014,7/1/2015,273292.3423,789682.9234
65109491,252,998,ביר אל-מכסור,בית ספר - ביר אל מכסור ג,,13,5310,220990.3698,742760.3992,35.22088439,32.7795601,2014,7/1/2015,220990.3698,742760.3992
65109257,252,998,ביר אל-מכסור,בית ספר - ביר אל מכסור,,13,5320,221619.7724,742685.5649,35.22760244,32.77888426,2014,7/1/2015,221619.7724,742685.5649
54447386,252,998,ביר אל-מכסור,בית ספר - ביר אל מכסור,,13,5330,221626.0625,742605.115,35.22766939,32.77815883,2014,7/1/2015,221626.0625,742605.115
54452087,252,998,ביר אל-מכסור,בית ספר - ביר אל מכסור ב,,13,5310,220978.4776,742707.5476,35.22075737,32.77908355,2014,7/1/2015,220978.4776,742707.5476
54448313,252,466,בית דגן,בית ספר - שדות,,13,5310,184275.5132,656585.092,34.83219648,32.00192428,2014,7/1/2015,184275.5132,656585.092
54448585,252,466,בית דגן,"בית ספר - רמב""ם",,13,5310,184205.1231,656408.4564,34.83145801,32.0003292,2014,7/1/2015,184205.1231,656408.4564
60590847,252,723,בית הגדי,בית ספר - בית גדי,,13,5310,162380.8678,592472.4191,34.60423385,31.42286317,2014,7/1/2015,162380.8678,592472.4191
54450139,252,288,בית יהושע,גן ילדים - גני גלית,,13,5305,187087.5305,685040.037,34.86099496,32.25860817,2014,7/1/2015,187087.5305,685040.037
54451557,252,288,בית יהושע,"בית ספר - אזורי ע""ש ד""ר חיים ויצמן",,13,5310,187621.291,684950.0667,34.86666244,32.25781213,0,,187621.291,684950.0667
54447208,252,326,בית יצחק-שער חפר,בית ספר - בית יצחק,,13,5310,189678.2361,693366.4154,34.88822793,32.3337635,0,,189678.2361,693366.4154
60590843,252,598,בית קמה,בית ספר - אזורי ניצני הנגב,,13,5310,177239.2848,595218.8707,34.76038192,31.44826911,2014,7/1/2015,177239.2848,595218.8707
60590707,252,365,בית קשת,בית ספר שדה - אלון תבור,,13,5411,238147.9995,734601.0334,35.40385999,32.70582934,0,,238147.9995,734601.0334
60590719,252,365,בית קשת,בית ספר - שדה גליל תחתון,,13,5310,238195.2697,734614.8773,35.40436441,32.70595337,0,,238195.2697,734614.8773
60590718,252,365,בית קשת,בית ספר שדה - גליל תחתון,,13,5411,238063.2802,734635.1831,35.40295713,32.7061387,2014,7/1/2015,238063.2802,734635.1831
65109595,252,1162,בית רימון,גן ילדים - בית רימון,,13,5305,231084.3074,742936.6969,35.32862885,32.78108936,2014,7/1/2015,231084.3074,742936.6969
54451265,252,9200,בית שאן,"בית ספר מיוחד - ממ""ד גולני",,13,5310,247307.4779,710810.8963,35.50083952,32.49111712,2014,7/1/2015,247307.4779,710810.8963
54451205,252,9200,בית שאן,בית ספר - אזורית בית שאן,,13,5337,246938.1499,710673.3182,35.496906,32.48988572,0,,246938.1499,710673.3182
54449754,252,9200,בית שאן,גן ילדים - מוסדות עוד יוסף חי,,13,5305,246956.4718,711070.9808,35.49711254,32.49347111,0,,246956.4718,711070.9808
54446590,252,9200,בית שאן,בית ספר מאיר לארכיאולוגיה,,13,5300,247475.586,710985.7764,35.50263333,32.49268984,2014,7/1/2015,247475.586,710985.7764
54453127,252,9200,בית שאן,בית ספר - תפארת משה,,13,5310,246513.7592,711835.8406,35.49242408,32.50037894,0,,246513.7592,711835.8406
60590874,252,9200,בית שאן,גן ילדים - גני מזוז,,13,5305,246947.0672,711098.038,35.49701326,32.49371533,0,,246947.0672,711098.038
54449731,252,9200,בית שאן,בית ספר - טכנולוגי עתיד,,13,5330,246561.5271,711435.4868,35.49292085,32.49676767,0,,246561.5271,711435.4868
54449851,252,9200,בית שאן,בית ספר - אדיר לבנות,,13,5312,246757.7412,712407.7678,35.49503681,32.5055302,0,,246757.7412,712407.7678
54447800,252,9200,בית שאן,בית ספר - מקיף אורט,,13,5330,247355.5141,711202.803,35.50136222,32.49464985,2014,7/1/2015,247355.5141,711202.803
54453090,252,9200,בית שאן,גן ילדים - גן יראה אור,,13,5305,247000.6941,711146.7298,35.49758527,32.49415307,2014,7/1/2015,247000.6941,711146.7298
54447538,252,9200,בית שאן,קרית חינוך זבולון המר,,13,5300,247488.8543,710351.0308,35.50275562,32.48696582,2014,7/1/2015,247488.8543,710351.0308
54452229,252,9200,בית שאן,בית ספר - חווה חקלאית בית שאן,,13,5310,247156.9106,711218.6295,35.49924953,32.49479753,2014,7/1/2015,247156.9106,711218.6295
54448516,252,9200,בית שאן,"בית ספר - ממ""ד נועם נריה",,13,5312,246889.7966,710625.5114,35.49639015,32.48945583,2014,7/1/2015,246889.7966,710625.5114
54450124,252,9200,בית שאן,בית ספר - תומר,,13,5310,246530.8062,711792.746,35.49260424,32.49998993,2014,7/1/2015,246530.8062,711792.746
54452562,252,9200,בית שאן,בית ספר - תחכמוני,,13,5310,246711.2602,711589.7772,35.49451852,32.49815529,2014,7/1/2015,246711.2602,711589.7772
65108795,252,9200,בית שאן,בית ספר - גלבוע,,13,5310,247200.3281,711318.5872,35.49971444,32.49569779,2014,7/1/2015,247200.3281,711318.5872
54447315,252,9200,בית שאן,"בית ספר - תורני רמב""ם",,13,5312,246231.5999,712070.5057,35.48942837,32.50250181,0,,246231.5999,712070.5057
54448550,252,2610,בית שמש,בית ספר - הקריה מנוחה ונחלה,,13,5310,199697.8308,627734.8096,34.99599415,31.74211958,2013,1/1/2014,199697.8308,627734.8096
54449866,252,2610,בית שמש,גן ילדים - גני סולם,,13,5305,198479.5694,628880.0017,34.98311306,31.7524257,2013,1/1/2014,198479.5694,628880.0017
54450785,252,2610,בית שמש,גן ילדים - גן תהילה,,13,5305,199305.0261,624753.25,34.99191021,31.71522372,2013,1/1/2014,199305.0261,624753.25
54452193,252,2610,בית שמש,"בית ספר - ברנקו וייס ע""ש שייבר",,13,5330,199207.8196,628685.5318,34.99080329,31.75068502,0,,199207.8196,628685.5318
54451207,252,2610,בית שמש,בית ספר - תפארת החיים,,13,5312,199503.9004,628869.6501,34.99392441,31.75235068,2013,1/1/2014,199503.9004,628869.6501
54452522,252,2610,בית שמש,גן ילדים - גן הדובדבן,Gan HaDuvdevan Kindergarten,13,5305,197757.9824,628024.3317,34.97551619,31.74469547,2013,1/1/2014,197757.9824,628024.3317
54449463,252,2610,בית שמש,גן ילדים - גן רקפת,Gan Rakkefet Kindergarten,13,5305,198415.5675,627651.5017,34.982464,31.74134542,0,,198415.5675,627651.5017
54450851,252,2610,בית שמש,בית ספר - לוין,,13,5312,198676.8971,627771.5119,34.98521928,31.74243249,2014,7/1/2015,198676.8971,627771.5119
54452453,252,2610,בית שמש,"בית ספר - חב""ד בנים",,13,5312,199429.3896,625984.3867,34.99319708,31.72632885,2014,7/1/2015,199429.3896,625984.3867
64844324,252,2610,בית שמש,בית ספר - תורה ויראה זבחי יצחק בנים,,13,5312,199691.3715,626262.1974,34.99595574,31.72883882,2013,1/1/2014,199691.3715,626262.1974
65107288,252,2610,בית שמש,דרכי דוד,,13,5340,198939.9274,627064.5994,34.98800992,31.73606201,2014,7/1/2015,198939.9274,627064.5994
65107290,252,2610,בית שמש,בית מדרש דחסיד צאנד,,13,5300,199280.6791,626855.2631,34.99161002,31.73418018,2014,7/1/2015,199280.6791,626855.2631
54450005,252,2610,בית שמש,כולל - ס.פאולא,,13,5340,200107.3395,627184.1924,35.00032666,31.73716088,2013,1/1/2014,200107.3395,627184.1924
54453130,252,2610,בית שמש,בית ספר - אורות בנים,,13,5312,198965.1789,627181.5303,34.98827394,31.73711699,2014,7/1/2015,198965.1789,627181.5303
54451363,252,2610,בית שמש,בית ספר מיוחד מנחם בגין,,13,5310,198648.422,627546.4357,34.98492357,31.74040215,2014,7/1/2015,198648.422,627546.4357
64844325,252,2610,בית שמש,בית ספר - תורה ויראה זבחי צדק בנות,,13,5312,199652.833,626235.9309,34.99554962,31.72860127,2013,1/1/2014,199652.833,626235.9309
54448222,252,2610,בית שמש,בית ספר - תורני אורות,,13,5312,199400.982,628445.018,34.99284688,31.74851937,2014,7/1/2015,199400.982,628445.018
54448398,252,2610,בית שמש,בית ספר אליקים,,13,5312,198528.0439,628702.3505,34.98362848,31.75082446,2014,7/1/2015,198528.0439,628702.3505
54448102,252,2610,בית שמש,בית ספר - הראל,,13,5312,199852.6883,624088.6189,34.99770142,31.70923927,2014,7/1/2015,199852.6883,624088.6189
54449043,252,2610,בית שמש,ישיבת - אוהלי מנחם,,13,5340,200091.5487,627150.7282,35.00016069,31.73685882,2014,7/1/2015,200091.5487,627150.7282
54449890,252,2610,בית שמש,גן ילדים - גן מכינה,,13,5305,199381.1008,624109.0783,34.99272602,31.70941562,2014,7/1/2015,199381.1008,624109.0783
54447266,252,2610,בית שמש,בית ספר - תורני ראשי ירושלים,,13,5312,198667.4039,627651.3437,34.98512165,31.74134859,2014,7/1/2015,198667.4039,627651.3437
54449279,252,2610,בית שמש,בית ספר - נווה צבי,,13,5312,198413.3885,628260.1283,34.98242791,31.74683422,2014,7/1/2015,198413.3885,628260.1283
65107148,252,2610,בית שמש,ישיבת באר החכמה,,13,5337,199145.1494,624549.0176,34.99022773,31.71337904,2014,7/1/2015,199145.1494,624549.0176
54448704,252,2610,בית שמש,בית ספר - בנים אהבת ישראל,,13,5321,199651.717,624773.9817,34.99556743,31.71541674,2014,7/1/2015,199651.717,624773.9817
54448760,252,2610,בית שמש,בית ספר - עטרת שלמה,,13,5312,199084.6064,624633.9131,34.98958724,31.71414359,2014,7/1/2015,199084.6064,624633.9131
54453119,252,2610,בית שמש,גן ילדים - גן חבצלת,Gan Havatselet Kindergarten,13,5305,198565.411,628760.3814,34.98402162,31.75134849,2013,1/1/2014,198565.411,628760.3814
64844327,252,2610,בית שמש,ישיבה - אמרי בינה,,13,5340,199451.467,627724.8754,34.99339443,31.74202571,2013,1/1/2014,199451.467,627724.8754
54446890,252,2610,בית שמש,"בית ספר - אמי""ת פירסט",,13,5330,199251.8315,628236.0612,34.99127708,31.74663229,2014,7/1/2015,199251.8315,628236.0612
54452563,252,2610,בית שמש,בית ספר - ברנקו וייס,,13,5330,199142.9415,627940.2531,34.99013404,31.74396264,2014,7/1/2015,199142.9415,627940.2531
54448729,252,2610,בית שמש,גן ילדים - גן דתי תפילות ישראל,,13,5305,199489.7106,627465.8306,34.99380331,31.7396902,2014,7/1/2015,199489.7106,627465.8306
65107469,252,2610,בית שמש,סמינר לבנות מורשת דליה,,13,5300,199481.8017,627769.5937,34.99371364,31.74242953,2014,7/1/2015,199481.8017,627769.5937
54446360,252,2610,בית שמש,מכללת - המשטרה,,13,5370,195939.1083,627298.3926,34.95633826,31.73811272,2014,7/1/2015,195939.1083,627298.3926
64844329,252,2610,בית שמש,בית ספר - ממד אורות בנות,,13,5312,199028.687,627200.1584,34.98894373,31.73728612,2014,7/1/2015,199028.687,627200.1584
54446637,252,2610,בית שמש,בית ספר - קרית חינוך משכנותיך ישראל,,13,5321,199347.9279,628772.4938,34.99228022,31.75147175,2014,7/1/2015,199347.9279,628772.4938
54450382,252,2610,בית שמש,גן ילדים - גן פשוש,Gan Pashosh Kindergarten,13,5305,198937.4222,624847.4287,34.98802997,31.71606654,2014,7/1/2015,198937.4222,624847.4287
54452527,252,2610,בית שמש,גן ילדים - גן סביון,Gan Savyon Kindergarten,13,5305,197764.2353,627990.1633,34.97558293,31.74438744,2014,7/1/2015,197764.2353,627990.1633
54451688,252,2610,בית שמש,בית ספר עדיהו,,13,5310,198492.2261,628766.7188,34.98324907,31.75140431,2014,7/1/2015,198492.2261,628766.7188
54451826,252,2610,בית שמש,בית ספר - מיוחד לוי אשכול,,13,5310,199239.8533,628097.2255,34.99115354,31.74538,2014,7/1/2015,199239.8533,628097.2255
54449178,252,2610,בית שמש,בית ספר - אביעזרי,,13,5312,199371.3492,624140.7419,34.99262249,31.70970101,2014,7/1/2015,199371.3492,624140.7419
54449395,252,2610,בית שמש,בית ספר - כלל חסידי לבנות תורת אמך,,13,5310,199956.0514,627260.0236,34.99872866,31.73784219,2014,7/1/2015,199956.0514,627260.0236
54448919,252,2610,בית שמש,בית ספר - שובו אומנות גרי,,13,5332,198552.2939,628269.3258,34.98389368,31.74691971,2014,7/1/2015,198552.2939,628269.3258
54450013,252,2610,בית שמש,בית ספר - בית שלום,,13,5312,199427.5008,624090.3816,34.99321589,31.70924782,2014,7/1/2015,199427.5008,624090.3816
54449670,252,2610,בית שמש,בית ספר סמינר ויז'ניץ,,13,5332,200088.6676,627257.8575,35.00012816,31.73782491,2014,7/1/2015,200088.6676,627257.8575
54451427,252,2610,בית שמש,בית ספר - אהבת ישראל בנים,,13,5312,199560.5859,624934.2255,34.99460272,31.71686031,2014,7/1/2015,199560.5859,624934.2255
65107748,252,2610,בית שמש,תלמוד תורה תורת משה,,13,5340,199798.6198,624047.7629,34.99713185,31.70886989,2014,7/1/2015,199798.6198,624047.7629
65107749,252,2610,בית שמש,בית ספר בנות הדסה,,13,5300,199000.6742,624868.0714,34.98869687,31.71625384,2014,7/1/2015,199000.6742,624868.0714
65107751,252,2610,בית שמש,דרכי דוד,,13,5340,198875.3352,627032.7424,34.98732899,31.73577355,2014,7/1/2015,198875.3352,627032.7424
54450805,252,2610,בית שמש,"בית ספר - מ""מ זבוטינסקי",,13,5310,197992.2162,627521.7902,34.97799919,31.74016776,2013,1/1/2014,197992.2162,627521.7902
64844328,252,2610,בית שמש,בית ספר - גילה,,13,5337,199724.0901,624201.5754,34.99634251,31.71025576,2014,7/1/2015,199724.0901,624201.5754
54450616,252,2610,בית שמש,בית ספר - אהבת ישראל,,13,5312,199371.1342,624787.8549,34.99260695,31.71553697,2014,7/1/2015,199371.1342,624787.8549
65107985,252,2610,בית שמש,עץ הדעת,,13,5305,199363.9127,625127.0841,34.9925238,31.71859616,2014,7/1/2015,199363.9127,625127.0841
65107992,252,2610,בית שמש,גני ילדים,Kindergartens Kindergarten,13,5305,198820.7992,627591.5861,34.98674171,31.74081245,2014,7/1/2015,198820.7992,627591.5861
54448375,252,2610,בית שמש,בית ספר - תורת הבית בנים,,13,5312,199544.2606,627546.2577,34.99437733,31.74041648,2014,7/1/2015,199544.2606,627546.2577
54453108,252,2610,בית שמש,בית ספר - אתרוג,,13,5312,199617.3319,624672.255,34.99520672,31.71449872,2014,7/1/2015,199617.3319,624672.255
54449326,252,2610,בית שמש,בית ספר - מגן אבות בנים,,13,5312,199592.7187,625945.3972,34.99492122,31.72598007,2014,7/1/2015,199592.7187,625945.3972
54449625,252,2610,בית שמש,בית ספר - בנות ירושליים,,13,5312,199671.1612,627535.6296,34.99571673,31.74032283,2014,7/1/2015,199671.1612,627535.6296
65107151,252,2610,בית שמש,הישיבה התיכונית שעלי תורה,,13,5337,199476.5154,624914.3501,34.99371616,31.7166796,2014,7/1/2015,199476.5154,624914.3501
54448952,252,2610,בית שמש,שיקום מקצועי elvin קבוצת צומת,,13,5300,199110.3887,628676.8008,34.98977517,31.75060455,2013,1/1/2014,199110.3887,628676.8008
54450465,252,2610,בית שמש,גן ילדים - גן זוהר,,13,5305,199271.3307,624745.5253,34.99155488,31.71515346,2014,7/1/2015,199271.3307,624745.5253
64844326,252,2610,בית שמש,בית ספר - בית יעקב הרמה,,13,5312,199451.6322,624157.174,34.9934691,31.7098506,2014,7/1/2015,199451.6322,624157.174
65107778,252,2610,בית שמש,בית המדרש תולדות אברהם יצחק,,13,5300,200054.6352,628433.0674,34.99974571,31.74842287,2014,7/1/2015,200054.6352,628433.0674
54450359,252,2610,בית שמש,בית ספר מיוחד שפות ותרבויות,,13,5312,199453.6691,624811.6288,34.99347722,31.71575281,2014,7/1/2015,199453.6691,624811.6288
54451435,252,2013,בן שמן (מושב),גן ילדים,Kindergarten,13,5305,192767.6124,651177.6393,34.92221542,31.95339157,2014,7/1/2015,192767.6124,651177.6393
54448295,252,6100,בני ברק,"בית ספר - ממ""ד ק.הרצוג",,13,5337,185354.1932,667434.9062,34.84322758,32.09979939,0,,185354.1932,667434.9062
54449108,252,6100,בני ברק,בית ספר - ארון ישראל,,13,5310,183885.1136,665196.8396,34.82774707,32.07957163,0,,183885.1136,665196.8396
54451202,252,6100,בני ברק,גן ילדים - גן שושי,,13,5305,184746.9401,666559.5971,34.83682599,32.09188753,0,,184746.9401,666559.5971
60590910,252,6100,בני ברק,ישיבה - קדושת יום טוב,Kdushat Yom Tov Yeshiva,13,5340,184893.3897,665340.9827,34.83842115,32.08090279,0,,184893.3897,665340.9827
54450096,252,6100,בני ברק,גן ילדים - גן ביטנורה,,13,5305,184533.1623,665575.163,34.8345972,32.0830035,0,,184533.1623,665575.163
54450169,252,6100,בני ברק,בית ספר - דרכי חינוך,,13,5312,184137.7568,665368.9015,34.83041664,32.08113118,0,,184137.7568,665368.9015
54450903,252,6100,בני ברק,בית ספר - נווה אחיעזר לבנות,,13,5312,185225.6045,664310.9721,34.84197655,32.07162445,0,,185225.6045,664310.9721
54451373,252,6100,בני ברק,סמינר בית יעקב,Bet Ya'akov,13,5370,184247.687,665264.7374,34.83158481,32.08019528,0,,184247.687,665264.7374
54450795,252,6100,בני ברק,ישיבה - נחלת שלמה,,13,5340,184842.3803,667213.6568,34.83781343,32.09778863,0,,184842.3803,667213.6568
54450632,252,6100,בני ברק,בית ספר - איש מצליח,,13,5312,185540.5279,666074.3455,34.84524962,32.08753574,0,,185540.5279,666074.3455
54448825,252,6100,בני ברק,ישיבה - ברכת אפרים לצעירים,,13,5340,185303.9297,665794.2556,34.8427534,32.08500281,0,,185303.9297,665794.2556
54448752,252,6100,בני ברק,מוסדות שערי קדושה,,13,5300,185425.9104,667000.6241,34.84400273,32.09588529,0,,185425.9104,667000.6241
54453143,252,6100,בני ברק,"גן ילדים - גן ש""ס בית מרגלית",,13,5305,184753.6153,664414.2098,34.83697413,32.07254103,0,,184753.6153,664414.2098
54451487,252,6100,בני ברק,ישיבת - חזון נחום,,13,5340,184398.13,665705.9403,34.83316217,32.08417864,0,,184398.13,665705.9403
54450386,252,6100,בני ברק,בית ספר - לבנים מעלות נכוה,,13,5321,184394.3721,666125.5613,34.83310706,32.08796258,0,,184394.3721,666125.5613
54448163,252,6100,בני ברק,"בית ספר - ממ""ד אוהל שרה",,13,5312,184111.6035,666913.745,34.83008283,32.09506144,0,,184111.6035,666913.745
54448534,252,6100,בני ברק,ישיבת - ויזניץ,,13,5340,184922.8929,664795.7518,34.83875322,32.0759869,0,,184922.8929,664795.7518
54447262,252,6100,בני ברק,בית ספר - נוה שרה,,13,5337,185243.2258,667460.5736,34.84205108,32.1000275,0,,185243.2258,667460.5736
54447819,252,6100,בני ברק,בית ספר - מקצועי תורה ומלאכה,,13,5332,184397.4511,667349.0056,34.83309504,32.09899544,0,,184397.4511,667349.0056
60590912,252,6100,בני ברק,ישיבת - חסידי צאנז,,13,5340,184313.974,665957.6709,34.83226158,32.08644608,0,,184313.974,665957.6709
54450325,252,6100,בני ברק,ישיבת - קול יהודה,,13,5340,185449.3246,666149.516,34.84428089,32.08821087,2014,7/1/2015,185449.3246,666149.516
54449170,252,6100,בני ברק,"בית ספר - תשב""ר המדרש",,13,5312,184927.4041,664326.087,34.83881786,32.07175168,0,,184927.4041,664326.087
54449320,252,6100,בני ברק,בית ספר - אוהלי אברהם,,13,5312,185522.9674,667380.6439,34.84501748,32.09931515,2014,7/1/2015,185522.9674,667380.6439
54450915,252,6100,בני ברק,"בית ספר - ממ""ד לבנות מוהליבר",,13,5312,184204.5056,666092.5479,34.8310971,32.08765896,2014,7/1/2015,184204.5056,666092.5479
54450953,252,6100,בני ברק,"גן ילדים - מרכז גני ש""ס שירת יוסף",,13,5305,184330.2091,665196.0194,34.83246137,32.07957816,2014,7/1/2015,184330.2091,665196.0194
54448636,252,6100,בני ברק,"בית ספר - ב""י מסורת ישראל",,13,5310,185020.7325,666272.0717,34.83973659,32.08930306,2014,7/1/2015,185020.7325,666272.0717
54448361,252,6100,בני ברק,בית ספר - כינור דויד,,13,5312,185521.3616,666130.1595,34.84504463,32.08803848,2014,7/1/2015,185521.3616,666130.1595
54451907,252,6100,בני ברק,גן ילדים - מעון מרגלית,Me'on Margalit Kindergarten,13,5305,184053.6726,666952.4905,34.82946772,32.09540903,2014,7/1/2015,184053.6726,666952.4905
54451828,252,6100,בני ברק,ישיבת - בנדהיים,,13,5340,184747.2298,665482.8848,34.83686794,32.08217795,2014,7/1/2015,184747.2298,665482.8848
54452130,252,6100,בני ברק,פנימיה - אחוזת שרה,,13,5338,185489.6668,666198.0509,34.8447065,32.08864976,2014,7/1/2015,185489.6668,666198.0509
54448973,252,6100,בני ברק,בית ספר - ברכת עופרים,,13,5312,183488.885,666112.1378,34.82351613,32.08781305,0,,183488.885,666112.1378
54449924,252,6100,בני ברק,ישיבת - היכל התורה,,13,5340,184399.6909,665577.3242,34.83318339,32.08301885,0,,184399.6909,665577.3242
54452008,252,6100,בני ברק,בית ספר - דרכי איש,,13,5312,185045.5349,664429.7813,34.84006524,32.07269038,2014,7/1/2015,185045.5349,664429.7813
54450318,252,6100,בני ברק,גן ילדים - גן ניצן,Gan Nitsan Kindergarten,13,5305,184060.7328,666828.4681,34.82954708,32.09429084,0,,184060.7328,666828.4681
54449307,252,6100,בני ברק,בית ספר - מנחת יצחק,,13,5312,184440.6709,665408.1604,34.83362362,32.08149464,2014,7/1/2015,184440.6709,665408.1604
54450453,252,6100,בני ברק,אור ברכה סמינר בית יעקב גור,,13,5370,183676.9485,666098.7874,34.8255087,32.08769864,0,,183676.9485,666098.7874
54450637,252,6100,בני ברק,ישיבת - קרלין סטולין,,13,5340,185120.5012,665005.9881,34.84083863,32.0778888,2014,7/1/2015,185120.5012,665005.9881
54450230,252,6100,בני ברק,ישיבת - אמרי שאול,,13,5340,183919.7364,666344.8218,34.82807134,32.08992499,0,,183919.7364,666344.8218
54450917,252,6100,בני ברק,בית ספר - בית יעקב מרכז,,13,5312,184085.2538,666278.0598,34.82982709,32.08932814,2014,7/1/2015,184085.2538,666278.0598
54451187,252,6100,בני ברק,"בית ספר - ממ""ד מקור חיים",,13,5312,184609.8063,667017.9646,34.83535671,32.09601676,2014,7/1/2015,184609.8063,667017.9646
54449263,252,6100,בני ברק,ישיבת - ויזניץ,,13,5340,184884.1995,664801.2382,34.83834322,32.07603519,2014,7/1/2015,184884.1995,664801.2382
54450530,252,6100,בני ברק,"בית ספר על""ה לילדים מוגבלים בפעולות",,13,5300,184961.0854,664317.3828,34.83917488,32.07167422,2014,7/1/2015,184961.0854,664317.3828
54449329,252,6100,בני ברק,ישיבת - כסא רחמים,,13,5340,185056.8273,664652.4486,34.84017687,32.0746987,2014,7/1/2015,185056.8273,664652.4486
54448473,252,6100,בני ברק,"בית ספר - ב""י אוהלי אליעזר",,13,5310,184496.0928,667029.0503,34.83415168,32.09611322,2014,7/1/2015,184496.0928,667029.0503
54452742,252,6100,בני ברק,גן ילדים - גן פנינה ודבורה,,13,5305,184315.9905,664858.2621,34.83232312,32.07653189,2014,7/1/2015,184315.9905,664858.2621
54453051,252,6100,בני ברק,בית ספר - אהלי שמעון,,13,5312,185377.6148,665614.9678,34.84354024,32.08338825,0,,185377.6148,665614.9678
54447503,252,6100,בני ברק,פנימיה - בנות אור החיים,,13,5338,184597.7049,664603.0554,34.83531608,32.07423921,2014,7/1/2015,184597.7049,664603.0554
54449161,252,6100,בני ברק,ישיבת - אמרי אמת,,13,5340,183847.7638,665889.0762,34.82732584,32.0858129,2014,7/1/2015,183847.7638,665889.0762
54449365,252,6100,בני ברק,"בית ספר - חינוך מיוחד ממ""ד עציון",,13,5312,183971.4466,666998.4752,34.82859496,32.09582112,2014,7/1/2015,183971.4466,666998.4752
54452054,252,6100,בני ברק,"בית ספר - ב""י שערי אהרון",,13,5312,184803.5225,667242.604,34.83740074,32.09804848,0,,184803.5225,667242.604
54450982,252,6100,בני ברק,כולל - פוניבז,,13,5340,184339.9968,665687.0342,34.83254711,32.08400634,0,,184339.9968,665687.0342
54449917,252,6100,בני ברק,"בית ספר - לבנות בית יעקב ש""ס",,13,5310,185061.3419,664076.9869,34.84024526,32.06950942,2014,7/1/2015,185061.3419,664076.9869
54452277,252,6100,בני ברק,סמינר לבנות בית אלקיים,Bet Elkayam Girls Seminary,13,5370,184982.5895,666223.5584,34.83933429,32.08886442,2014,7/1/2015,184982.5895,666223.5584
54451969,252,6100,בני ברק,בית ספר חינוך מיוחד אהל שרה,,13,5300,185411.6396,667441.6273,34.84383593,32.09986174,2014,7/1/2015,185411.6396,667441.6273
54451948,252,6100,בני ברק,סמינר בית יעקב הרב כהנא,Bet Ya'akov HaRav Kahana Seminary,13,5370,185347.8026,664810.3668,34.84325301,32.0761316,2014,7/1/2015,185347.8026,664810.3668
54447874,252,6100,בני ברק,בית ספר - בית חינוך,,13,5312,185097.3593,667442.6649,34.84050642,32.09986157,2014,7/1/2015,185097.3593,667442.6649
54449367,252,6100,בני ברק,מוסדות ברסלב,Breslav Institutes,13,5300,185062.8494,665274.487,34.84021841,32.08030832,0,,185062.8494,665274.487
54446623,252,6100,בני ברק,מרכז חינוך העצמאי מסורת ישראל,,13,5300,185177.5618,667166.2186,34.84136594,32.09737107,2014,7/1/2015,185177.5618,667166.2186
54450902,252,6100,בני ברק,בית ספר - צביה,,13,5337,184238.0763,666200.6627,34.83144874,32.08863497,2014,7/1/2015,184238.0763,666200.6627
54450885,252,6100,בני ברק,בית ספר - נווה אחיעזר לבנים,,13,5312,185207.4929,664280.3082,34.84178583,32.07134738,2014,7/1/2015,185207.4929,664280.3082
54451215,252,6100,בני ברק,"בית ספר - מ""מ עירוני כללי רמז",,13,5330,183816.5942,666601.5428,34.82696926,32.0922368,2014,7/1/2015,183816.5942,666601.5428
54451140,252,6100,בני ברק,בית ספר - מאיר,,13,5332,184936.5206,665540.5723,34.83887082,32.08270397,2014,7/1/2015,184936.5206,665540.5723
54448514,252,6100,בני ברק,ישיבת - היכל התורה,,13,5340,184341.553,665594.643,34.83256697,32.08317323,0,,184341.553,665594.643
54452509,252,6100,בני ברק,"בית ספר - מרכז ב""ב",,13,5312,184037.1587,666100.1286,34.82932419,32.08772209,2014,7/1/2015,184037.1587,666100.1286
54452135,252,6100,בני ברק,ישיבת - פרמישלאן,,13,5340,185451.4682,666781.7121,34.84428123,32.09391196,2014,7/1/2015,185451.4682,666781.7121
54451982,252,6100,בני ברק,בית ספר - כתב סופר ערלוי,,13,5312,184437.435,666192.8342,34.83356076,32.08857057,0,,184437.435,666192.8342
54451067,252,6100,בני ברק,ישיבת - דרכי יוסף,,13,5340,185111.7132,664621.7781,34.84075927,32.07442379,0,,185111.7132,664621.7781
54449221,252,6100,בני ברק,ישיבת - חכמי לובלין,,13,5340,184443.8125,665496.5885,34.83365367,32.08229216,0,,184443.8125,665496.5885
54449595,252,6100,בני ברק,בית ספר - חסידי בית יעקב גור,,13,5332,185387.0373,666181.9672,34.84361995,32.08850163,0,,185387.0373,666181.9672
54449379,252,6100,בני ברק,בית ספר - חרדי בית יעקב גור אהל צביה,,13,5312,185319.2038,666110.0912,34.84290397,32.08785142,0,,185319.2038,666110.0912
54453039,252,6100,בני ברק,ישיבת - בית יעקב,,13,5340,184623.4412,665014.3304,34.83557375,32.07794881,2014,7/1/2015,184623.4412,665014.3304
54449837,252,6100,בני ברק,ישיבת - שערי שמים,,13,5340,184103.3799,666762.0134,34.8300013,32.0936929,2014,7/1/2015,184103.3799,666762.0134
54448076,252,6100,בני ברק,בית ספר - לבנות אוצר החיים,,13,5312,184555.9476,666909.3636,34.8347901,32.09503576,2014,7/1/2015,184555.9476,666909.3636
54452325,252,6100,בני ברק,ישיבת - ברכת יוסף,,13,5340,185409.2831,666964.1709,34.84382788,32.09555606,0,,185409.2831,666964.1709
54449847,252,6100,בני ברק,בית ספר - אוצר החיים,,13,5312,185216.6504,666893.6399,34.84178975,32.0949142,2014,7/1/2015,185216.6504,666893.6399
54449683,252,6100,בני ברק,בית ספר - תפארת בנים,,13,5312,184515.7341,665714.2152,34.83440755,32.08425691,0,,184515.7341,665714.2152
54451178,252,6100,בני ברק,"בית ספר - מ""מ קוממיות",,13,5312,184065.0071,666691.1975,34.82959741,32.0930531,0,,184065.0071,666691.1975
54449496,252,6100,בני ברק,בית ספר - רב כהנמן,,13,5312,184915.5552,664267.146,34.83869449,32.0712198,0,,184915.5552,664267.146
65106751,252,1368,בני דקלים,בית ספר - תורני נועם,,13,5312,191965.5888,602733.7145,34.91509369,31.51648693,2014,7/1/2015,191965.5888,602733.7145
60590694,252,4015,בני יהודה,בית ספר - מצפור,,13,5310,264644.3618,744714.0146,35.68693344,32.79624777,2014,7/1/2015,264644.3618,744714.0146
54448530,252,1066,"בני עי""ש",בית ספר - אופק,,13,5310,177337.7474,632645.8174,34.7598157,31.78580338,0,,177337.7474,632645.8174
54448488,252,1066,"בני עי""ש","בית ספר - ממ""ד אפרתי",,13,5312,177552.3321,633062.4157,34.76206337,31.78956821,2014,7/1/2015,177552.3321,633062.4157
54449502,252,9800,בנימינה-גבעת עדה,"בית ספר - ממ""ד חב""ד",,13,5312,201486.3479,713792.6435,35.01325636,32.51820815,0,,201486.3479,713792.6435
54448529,252,9800,בנימינה-גבעת עדה,בית ספר - אשכולות למדעים,,13,5310,195470.2144,713995.3224,34.94922221,32.51992212,0,,195470.2144,713995.3224
54450063,252,9800,בנימינה-גבעת עדה,בית ספר - אמירים למדע ולסביבה,,13,5310,194123.1846,714170.9565,34.93488097,32.52147595,0,,194123.1846,714170.9565
54447894,252,9800,בנימינה-גבעת עדה,פנימיה - בית הילדים,,13,5338,201019.0315,713556.706,35.00828738,32.51607297,2014,7/1/2015,201019.0315,713556.706
54449597,252,9800,בנימינה-גבעת עדה,גן ילדים - גן הבית של יעל,,13,5305,195348.8626,714283.1651,34.94792328,32.52251505,0,,195348.8626,714283.1651
54448184,252,9800,בנימינה-גבעת עדה,בית ספר - גבע,,13,5310,200680.926,713690.6753,35.00468636,32.51727535,2014,7/1/2015,200680.926,713690.6753
54452077,252,9800,בנימינה-גבעת עדה,בית ספר - הנדיב,,13,5310,194466.377,714351.6401,34.93852885,32.523113,2014,7/1/2015,194466.377,714351.6401
54448266,252,9800,בנימינה-גבעת עדה,קרית חינוך אורט שומרון,,13,5300,195987.8841,717268.7312,34.9546501,32.54945037,2014,7/1/2015,195987.8841,717268.7312
65109834,252,1323,בת הדר,מרכז הדרכה אזורי חוף אשקלון,,13,5300,161844.7268,617320.1897,34.59714653,31.64692047,2014,7/1/2015,161844.7268,617320.1897
54452520,252,1319,בת חפר,"גן ילדים - גן ממ""ד גן הגפן",,13,5305,201202.072,693444.9748,35.0106238,32.33471937,2014,7/1/2015,201202.072,693444.9748
54448173,252,1319,בת חפר,בית ספר - יסודי שדות,,13,5310,201335.6947,693423.6754,35.01204346,32.33452947,0,,201335.6947,693423.6754
54448575,252,1319,בת חפר,"גן ילדים - נעמ""ת מעון יום",,13,5305,201218.0342,693381.7994,35.01079455,32.33414994,2014,7/1/2015,201218.0342,693381.7994
54449327,252,1319,בת חפר,גן ילדים - גני פיס,,13,5305,201180.9326,693486.8347,35.01039846,32.3350965,2014,7/1/2015,201180.9326,693486.8347
54449651,252,6200,בת ים,בית ספר - יסודי ממלכתי דתי יעד,,13,5312,175849.5653,657243.4628,34.74299834,32.00756834,0,,175849.5653,657243.4628
54451896,252,6200,בת ים,בית ספר - הרצל,,13,5310,176984.9815,657777.9332,34.75499116,32.01243124,0,,176984.9815,657777.9332
54447341,252,6200,בת ים,בית ספר - רמות,,13,5320,176611.3367,656819.5583,34.75107914,32.00377472,0,,176611.3367,656819.5583
54449410,252,6200,בת ים,בית ספר - יסודי ממלכתי דתיהראל,,13,5312,177484.1564,657455.4159,34.76028834,32.00954145,0,,177484.1564,657455.4159
54452241,252,6200,בת ים,מרכז הנוער הרב התחומי מגדלות השומר הצעיר,,13,5300,176858.442,657951.4067,34.75364423,32.01399084,0,,176858.442,657951.4067
54447331,252,6200,בת ים,בית ספר - תורני עקיבא,,13,5312,176745.9641,659558.069,34.75238262,32.02847517,0,,176745.9641,659558.069
54448151,252,6200,בת ים,בית ספר - נחום סוקולוב,,13,5310,175720.6545,658666.933,34.74156952,32.02039994,0,,175720.6545,658666.933
54449148,252,6200,בת ים,"גן ילדים - ויצ""ו",WIZO Kindergarten,13,5305,175622.062,657946.08,34.74055871,32.01389562,0,,175622.062,657946.08
54450083,252,6200,בת ים,"בית ספר - מקצועי שע""י המכללה למנהל",,13,5330,177110.6581,659929.1063,34.75622683,32.03183481,2014,7/1/2015,177110.6581,659929.1063
54450589,252,6200,בת ים,בית ספר - הנשיא,,13,5310,177476.6437,658010.321,34.76018469,32.01454521,0,,177476.6437,658010.321
54447806,252,6200,בת ים,מכללת - בת ים האוניברסיטה הפתוחה,,13,5370,177351.3365,658834.9197,34.75882244,32.02197664,0,,177351.3365,658834.9197
54447751,252,6200,בת ים,בית ספר - היובל,,13,5310,177128.7079,657300.0232,34.75653329,32.00812692,0,,177128.7079,657300.0232
54448934,252,6200,בת ים,"מרכז פסג""ה",,13,5300,175661.0919,657876.2069,34.74097497,32.01326703,0,,175661.0919,657876.2069
54449163,252,6200,בת ים,חווה לחינוך חקלאי ואיכות הסביבה,Farm for Agricultural Education & the Environment,13,5300,176988.1222,656798.2842,34.75506751,32.00359706,0,,176988.1222,656798.2842
54448920,252,6200,בת ים,מועצת הנוער העירוני,Municipal Youth Council,13,5300,177052.0633,657348.8807,34.75571999,32.00856464,0,,177052.0633,657348.8807
54451617,252,6200,בת ים,בית ספר - בית וגן,,13,5310,176158.206,659103.8477,34.74618124,32.02435676,0,,176158.206,659103.8477
54451383,252,6200,בת ים,"בית ספר - ממלכתי ע""ש ויטבנקין",,13,5310,175610.9991,657886.1385,34.74044434,32.01335465,0,,175610.9991,657886.1385
54448414,252,6200,בת ים,בית ספר - ירושלים,,13,5310,177033.3421,659228.5186,34.7554392,32.02551416,0,,177033.3421,659228.5186
54451045,252,6200,בת ים,בית ספר - בן גוריון משולב אומנויות,,13,5330,176373.4641,657806.8162,34.74851771,32.0126686,0,,176373.4641,657806.8162
54448225,252,6200,בת ים,"בית ספר - שז""ר",,13,5320,177024.8904,657894.349,34.75540843,32.01348256,0,,177024.8904,657894.349
54451601,252,6200,בת ים,גן ילדים - המרכז לקידום והעשרת הילד,,13,5305,176734.7857,659345.0516,34.75227373,32.0265538,2014,7/1/2015,176734.7857,659345.0516
54450153,252,6200,בת ים,בית ספר - רשת חינוכית תורנית- אולפנת צביה,,13,5312,177476.6127,658388.8048,34.76016789,32.01795831,0,,177476.6127,658388.8048
54450102,252,6200,בת ים,בית ספר - יסודי ממלכתי דתי תחכמוני,,13,5312,175831.6959,658998.6214,34.74272985,32.02339532,2014,7/1/2015,175831.6959,658998.6214
54447721,252,6200,בת ים,בית ספר - מקיף ומכללה אורט הבונים,,13,5330,176472.8691,657780.1,34.74957098,32.01243146,2014,7/1/2015,176472.8691,657780.1
54451667,252,6200,בת ים,בית ספר - משה שרת,,13,5310,176814.6038,658373.1289,34.75316161,32.0177922,0,,176814.6038,658373.1289
54446609,252,6200,בת ים,בית ספר - מקצועי ומכללה טכנולוגית אורט,,13,5330,176962.2835,657644.469,34.75475681,32.01122684,2014,7/1/2015,176962.2835,657644.469
54447728,252,6200,בת ים,"ישיבת - בני עקיבא אד""רת",,13,5340,176105.1459,657894.1083,34.74567397,32.01344555,0,,176105.1459,657894.1083
54452968,252,6200,בת ים,בית ספר - רעות,,13,5310,177310.5816,659363.1383,34.75836797,32.02673849,0,,177310.5816,659363.1383
54451562,252,6200,בת ים,בית ספר - רמות,,13,5330,176627.396,656891.0474,34.75124592,32.00442,0,,176627.396,656891.0474
54452469,252,6200,בת ים,בית ספר - ממלכתי נחשונים,,13,5310,176440.2172,659077.1173,34.74916756,32.02412647,2014,7/1/2015,176440.2172,659077.1173
54448453,252,6200,בת ים,"בית ספר - שז""ר",,13,5310,176805.1663,657831.4755,34.75308567,32.01290732,2014,7/1/2015,176805.1663,657831.4755
54450134,252,6200,בת ים,בית ספר - יסודי ממלכתי דתי ציפורי,,13,5312,176266.358,658525.099,34.74735196,32.01914186,0,,176266.358,658525.099
54446324,252,6200,בת ים,בית ספר - מלכתי א.ד.גורדון,,13,5310,176126.5099,659831.3045,34.74581304,32.0309156,2014,7/1/2015,176126.5099,659831.3045
54451605,252,6200,בת ים,בית ספר - ממלכתי ראשונים,,13,5310,176452.035,658705.3345,34.74930923,32.02077425,0,,176452.035,658705.3345
54451834,252,6200,בת ים,בית ספר - מסילות,,13,5310,176893.3401,658490.52,34.75398981,32.01885378,0,,176893.3401,658490.52
54452037,252,6200,בת ים,בית ספר - מקצועי אורט רמות,,13,5330,177251.2083,658530.2026,34.75777593,32.01922503,0,,177251.2083,658530.2026
54451419,252,6200,בת ים,בית ספר - יצחק שדה,,13,5310,175921.1177,657924.4762,34.74372486,32.01371234,0,,175921.1177,657924.4762
54452309,252,6200,בת ים,גן ילדים - מעון ויצו,Me'on WIZO Kindergarten,13,5305,176975.9043,658470.5855,34.75486459,32.01867711,0,,176975.9043,658470.5855
54451818,252,6200,בת ים,אולפן משה שרת,,13,5300,176824.385,658283.2797,34.75326911,32.01698233,2014,7/1/2015,176824.385,658283.2797
54452009,252,6200,בת ים,בית ספר - דוד אלעזר,,13,5310,175621.5757,658654.2498,34.74052138,32.02028173,0,,175621.5757,658654.2498
54449123,252,6200,בת ים,בית ספר - נתיבות רבקה,,13,5310,177118.3264,659548.6089,34.75632472,32.02840385,0,,177118.3264,659548.6089
54448947,252,6200,בת ים,גן ילדים - דתי בני ציון,,13,5305,177163.3022,659523.125,34.75680194,32.02817573,0,,177163.3022,659523.125
54452262,252,6200,בת ים,בית ספר - יד מורדכי,,13,5310,177028.1364,658380.6223,34.75542139,32.0178678,0,,177028.1364,658380.6223
54450176,252,6200,בת ים,גן ילדים - הספארי של מאור,,13,5305,175814.5108,659606.5633,34.74252043,32.02887694,2014,7/1/2015,175814.5108,659606.5633
54452056,252,6200,בת ים,בית ספר - ממלכתי יגאל אלון,,13,5310,176495.5733,657106.2204,34.74984128,32.0063554,0,,176495.5733,657106.2204
54451296,252,6200,בת ים,בית ספר - טכנולוגי אורט,,13,5330,177461.0669,659206.5805,34.75996774,32.02533228,0,,177461.0669,659206.5805
54447528,252,627,ג'לג'וליה,בית ספר א,School,13,5310,196074.4152,673570.4569,34.95664838,32.15540188,2014,7/1/2015,196074.4152,673570.4569
54451076,252,627,ג'לג'וליה,בית ספר ג,School,13,5310,196049.837,672927.1654,34.95640355,32.14960028,2014,7/1/2015,196049.837,672927.1654
54449744,252,627,ג'לג'וליה,בית ספר - תיכון ג'לג'וליה,,13,5330,195971.5025,673423,34.95556106,32.15407,0,,195971.5025,673423
64763958,252,379,גאולים,בית ספר - לב הפרדס,,13,5310,193976.9715,689402.625,34.9339919,32.29812597,0,,193976.9715,689402.625
65106851,252,424,גבים,מכללה - ספיר,,13,5370,161540.4871,602057.837,34.59483583,31.50926621,2014,7/1/2015,161540.4871,602057.837
65108599,252,683,גבע כרמל,גן ילדים - גבע בוגר,,13,5305,196128.0446,730097.1989,34.95582286,32.66512968,2014,7/1/2015,196128.0446,730097.1989
61078801,252,1344,גבעות בר,"בי""ס אזורי יובלי הנגב",,13,5320,177139.2291,584852.481,34.75977041,31.35477421,2014,7/1/2015,177139.2291,584852.481
54447185,252,1293,גבעת אבני,בית ספר - עלי גבעה,,13,5310,241307.1493,742161.6747,35.43773015,32.77394541,2014,7/1/2015,241307.1493,742161.6747
65108830,252,4021,גבעת יואב,בית ספר מצפה גולן,School,13,5312,264783.7811,745072.5708,35.68843934,32.799475,2014,7/1/2015,264783.7811,745072.5708
54446894,252,681,גבעת שמואל,"בית ספר - מ""מ בן גוריון",,13,5310,185753.0632,664087.2469,34.84757055,32.06962279,0,,185753.0632,664087.2469
54451144,252,681,גבעת שמואל,גן ילדים סמטת יצחק מודעי,Kindergarten,13,5305,186562.7327,664787.1876,34.85612141,32.07595861,0,,186562.7327,664787.1876
54447580,252,681,גבעת שמואל,"בית ספר - ממ""ד מורשת זבולון",,13,5312,186248.7135,664984.0235,34.85278877,32.07772446,2014,7/1/2015,186248.7135,664984.0235
54448990,252,681,גבעת שמואל,בית ספר - אלון,,13,5320,185859.9491,665097.9214,34.84866722,32.07874007,2014,7/1/2015,185859.9491,665097.9214
65107205,252,681,גבעת שמואל,בית ספר - מורשת נריה,,13,5312,186277.8779,665514.6315,34.85307935,32.08251025,2014,7/1/2015,186277.8779,665514.6315
